{
"type": "FeatureCollection",
"name": "Towns",
"features": [
{ "type": "Feature", "properties": { "geoname_id": "1818428", "name": "Causeway Bay", "ascii_name": "Causeway Bay", "alternate_names": [ "Causeway Bay", "Kozuehj-Bej", "Tong Lo Wan", "Tongluo Wan", "Tung Lo Wan", "kavucave kuta", "kojeuwei bei", "tong luo wan", "Козуэй-Бей", "கவுசவே குடா", "銅鑼湾", "銅鑼灣", "铜锣湾", "코즈웨이 베이" ], "latitude": "22.28189", "longitude": "114.18515", "feature_class": "P", "feature_code": "PPLX", "country_code": "HK", "admin1_code": "HEA", "population": 12777, "dem": 43, "timezone": "Asia/Hong_Kong", "modification_date": "2023-09-22", "country": "Hong Kong" }, "geometry": { "type": "Point", "coordinates": [ 114.18515, 22.28189 ] } },
{ "type": "Feature", "properties": { "geoname_id": "1818673", "name": "Tai Po", "ascii_name": "Tai Po", "alternate_names": [ "Tai Po Market", "Tai Po Old Market", "Tai-po-hui", "Tai-wo-shi", "Taj Po", "da bu", "da bu xu", "dapu", "Тај По", "大埔", "大埔墟", "다푸" ], "latitude": "22.45007", "longitude": "114.16877", "feature_class": "P", "feature_code": "PPLA", "country_code": "HK", "admin1_code": "NTP", "population": 274100, "dem": 22, "timezone": "Asia/Hong_Kong", "modification_date": "2022-06-08", "country": "Hong Kong" }, "geometry": { "type": "Point", "coordinates": [ 114.16877, 22.45007 ] } },
{ "type": "Feature", "properties": { "geoname_id": "1818818", "name": "Shouson Hill", "ascii_name": "Shouson Hill", "alternate_names": [ "Shouson Hill", "Shuson Khill", "shou chen shan", "Шусон Хилл", "壽臣山" ], "latitude": "22.24843", "longitude": "114.17993", "feature_class": "P", "feature_code": "PPL", "country_code": "HK", "admin1_code": "HSO", "population": 1737, "dem": 75, "timezone": "Asia/Hong_Kong", "modification_date": "2024-01-02", "country": "Hong Kong" }, "geometry": { "type": "Point", "coordinates": [ 114.17993, 22.24843 ] } },
{ "type": "Feature", "properties": { "geoname_id": "1819091", "name": "Pok Fu Lam", "ascii_name": "Pok Fu Lam", "alternate_names": [ "Pokfolum" ], "latitude": "22.26861", "longitude": "114.12924", "feature_class": "P", "feature_code": "PPL", "country_code": "HK", "admin1_code": "HSO", "population": 77100, "dem": 117, "timezone": "Asia/Hong_Kong", "modification_date": "2022-06-08", "country": "Hong Kong" }, "geometry": { "type": "Point", "coordinates": [ 114.12924, 22.26861 ] } },
{ "type": "Feature", "properties": { "geoname_id": "1819353", "name": "Mong Kok", "ascii_name": "Mong Kok", "alternate_names": [ "Argyle", "MK", "Mong Kok", "Mong Kok Tsui", "Mongkok", "Wangjiao", "wang jiao", "旺角" ], "latitude": "22.31935", "longitude": "114.17136", "feature_class": "P", "feature_code": "PPLA", "country_code": "HK", "admin1_code": "KYT", "population": 62967, "dem": 35, "timezone": "Asia/Hong_Kong", "modification_date": "2024-02-13", "country": "Hong Kong" }, "geometry": { "type": "Point", "coordinates": [ 114.17136, 22.31935 ] } },
{ "type": "Feature", "properties": { "geoname_id": "1819952", "name": "Cheung Sha Wan", "ascii_name": "Cheung Sha Wan", "alternate_names": [ "Changsha Wan", "Cheung Sha Wan", "zhang sha wan", "長沙灣", "长沙湾" ], "latitude": "22.23296", "longitude": "114.0045", "feature_class": "P", "feature_code": "PPL", "country_code": "HK", "admin1_code": "KSS", "population": 14966, "dem": 12, "timezone": "Asia/Hong_Kong", "modification_date": "2023-12-05", "country": "Hong Kong" }, "geometry": { "type": "Point", "coordinates": [ 114.0045, 22.23296 ] } },
{ "type": "Feature", "properties": { "geoname_id": "12719581", "name": "So Uk Estate", "ascii_name": "So Uk Estate", "latitude": "22.34153", "longitude": "114.15653", "feature_class": "P", "feature_code": "PPL", "country_code": "HK", "admin1_code": "KSS", "population": 18748, "dem": 1, "timezone": "Asia/Hong_Kong", "modification_date": "2024-01-30", "country": "Hong Kong" }, "geometry": { "type": "Point", "coordinates": [ 114.15653, 22.34153 ] } },
{ "type": "Feature", "properties": { "geoname_id": "12719615", "name": "Fortress Garden", "ascii_name": "Fortress Garden", "latitude": "22.28744", "longitude": "114.19411", "feature_class": "P", "feature_code": "PPL", "country_code": "HK", "admin1_code": "HEA", "population": 3860, "dem": 42, "timezone": "Asia/Hong_Kong", "modification_date": "2024-01-30", "country": "Hong Kong" }, "geometry": { "type": "Point", "coordinates": [ 114.19411, 22.28744 ] } },
{ "type": "Feature", "properties": { "geoname_id": "12719798", "name": "Yue On Court", "ascii_name": "Yue On Court", "latitude": "22.24304", "longitude": "114.15746", "feature_class": "P", "feature_code": "PPL", "country_code": "HK", "admin1_code": "HSO", "population": 5175, "dem": 3, "timezone": "Asia/Hong_Kong", "modification_date": "2024-02-01", "country": "Hong Kong" }, "geometry": { "type": "Point", "coordinates": [ 114.15746, 22.24304 ] } },
{ "type": "Feature", "properties": { "geoname_id": "12719838", "name": "Kai Ching Estate", "ascii_name": "Kai Ching Estate", "latitude": "22.33289", "longitude": "114.20304", "feature_class": "P", "feature_code": "PPL", "country_code": "HK", "admin1_code": "KKC", "population": 11876, "dem": 3, "timezone": "Asia/Hong_Kong", "modification_date": "2024-02-01", "country": "Hong Kong" }, "geometry": { "type": "Point", "coordinates": [ 114.20304, 22.33289 ] } },
{ "type": "Feature", "properties": { "geoname_id": "12719841", "name": "Mantin Heights", "ascii_name": "Mantin Heights", "latitude": "22.31926", "longitude": "114.18187", "feature_class": "P", "feature_code": "PPL", "country_code": "HK", "admin1_code": "KKC", "population": 3189, "dem": 26, "timezone": "Asia/Hong_Kong", "modification_date": "2024-02-01", "country": "Hong Kong" }, "geometry": { "type": "Point", "coordinates": [ 114.18187, 22.31926 ] } },
{ "type": "Feature", "properties": { "geoname_id": "12719842", "name": "Grand Waterfront", "ascii_name": "Grand Waterfront", "latitude": "22.31921", "longitude": "114.19375", "feature_class": "P", "feature_code": "PPL", "country_code": "HK", "admin1_code": "KKC", "population": 4400, "dem": 3, "timezone": "Asia/Hong_Kong", "modification_date": "2024-02-01", "country": "Hong Kong" }, "geometry": { "type": "Point", "coordinates": [ 114.19375, 22.31921 ] } },
{ "type": "Feature", "properties": { "geoname_id": "12746537", "name": "Fu Keung Court", "ascii_name": "Fu Keung Court", "latitude": "22.34034", "longitude": "114.18453", "feature_class": "P", "feature_code": "PPL", "country_code": "HK", "admin1_code": "KWT", "population": 3557, "dem": 34, "timezone": "Asia/Hong_Kong", "modification_date": "2024-02-19", "country": "Hong Kong" }, "geometry": { "type": "Point", "coordinates": [ 114.18453, 22.34034 ] } },
{ "type": "Feature", "properties": { "geoname_id": "12746542", "name": "Tsz Man Estate", "ascii_name": "Tsz Man Estate", "latitude": "22.34816", "longitude": "114.20287", "feature_class": "P", "feature_code": "PPL", "country_code": "HK", "admin1_code": "KWT", "population": 5936, "dem": 87, "timezone": "Asia/Hong_Kong", "modification_date": "2024-02-19", "country": "Hong Kong" }, "geometry": { "type": "Point", "coordinates": [ 114.20287, 22.34816 ] } },
{ "type": "Feature", "properties": { "geoname_id": "1818379", "name": "Wan Chai", "ascii_name": "Wan Chai", "alternate_names": [ "Wan Chai", "Wanchai", "wan zi", "灣仔" ], "latitude": "22.28142", "longitude": "114.17258", "feature_class": "P", "feature_code": "PPLA", "country_code": "HK", "admin1_code": "HWC", "population": 166695, "dem": 40, "timezone": "Asia/Hong_Kong", "modification_date": "2024-01-07", "country": "Hong Kong" }, "geometry": { "type": "Point", "coordinates": [ 114.17258, 22.28142 ] } },
{ "type": "Feature", "properties": { "geoname_id": "1818574", "name": "Ting Kau", "ascii_name": "Ting Kau", "alternate_names": [ "Dingjiu", "Ting Kau", "Ting Kaw", "Tingkao", "ting jiu", "汀九" ], "latitude": "22.36956", "longitude": "114.07907", "feature_class": "P", "feature_code": "PPL", "country_code": "HK", "admin1_code": "NTW", "population": 17009, "dem": 10, "timezone": "Asia/Hong_Kong", "modification_date": "2023-12-05", "country": "Hong Kong" }, "geometry": { "type": "Point", "coordinates": [ 114.07907, 22.36956 ] } },
{ "type": "Feature", "properties": { "geoname_id": "1818684", "name": "Tai O", "ascii_name": "Tai O", "alternate_names": [ "Da'ao", "Da’ao", "Tai O", "Tai O Town", "Tai ho", "Taj O", "da ao", "taio", "tay aw", "Тай О", "טאי או", "تای او", "大澳", "타이오" ], "latitude": "22.25515", "longitude": "113.86309", "feature_class": "P", "feature_code": "PPL", "country_code": "HK", "admin1_code": "NIS", "population": 3300, "dem": 4, "timezone": "Asia/Hong_Kong", "modification_date": "2023-12-13", "country": "Hong Kong" }, "geometry": { "type": "Point", "coordinates": [ 113.86309, 22.25515 ] } },
{ "type": "Feature", "properties": { "geoname_id": "1818781", "name": "Siu Lek Yuen", "ascii_name": "Siu Lek Yuen", "alternate_names": [ "Siu Lek Yuen", "Siu Lik Yuen", "Xiaoliyuan", "xiao li yuan", "小瀝源" ], "latitude": "22.38174", "longitude": "114.21256", "feature_class": "P", "feature_code": "PPL", "country_code": "HK", "admin1_code": "NST", "population": 57349, "dem": 16, "timezone": "Asia/Hong_Kong", "modification_date": "2023-11-28", "country": "Hong Kong" }, "geometry": { "type": "Point", "coordinates": [ 114.21256, 22.38174 ] } },
{ "type": "Feature", "properties": { "geoname_id": "12640682", "name": "Kadoorie", "ascii_name": "Kadoorie", "alternate_names": [ "jia dao li", "嘉道理" ], "latitude": "22.32247", "longitude": "114.17556", "feature_class": "P", "feature_code": "PPLX", "country_code": "HK", "admin1_code": "KKC", "population": 17422, "dem": 26, "timezone": "Asia/Hong_Kong", "modification_date": "2023-12-05", "country": "Hong Kong" }, "geometry": { "type": "Point", "coordinates": [ 114.17556, 22.32247 ] } },
{ "type": "Feature", "properties": { "geoname_id": "12687144", "name": "Prince Edward", "ascii_name": "Prince Edward", "latitude": "22.3236", "longitude": "114.17938", "feature_class": "P", "feature_code": "PPL", "country_code": "HK", "admin1_code": "KKC", "population": 15481, "dem": 26, "timezone": "Asia/Hong_Kong", "modification_date": "2023-12-19", "country": "Hong Kong" }, "geometry": { "type": "Point", "coordinates": [ 114.17938, 22.3236 ] } },
{ "type": "Feature", "properties": { "geoname_id": "12689063", "name": "Pat Heung", "ascii_name": "Pat Heung", "latitude": "22.4461", "longitude": "114.09226", "feature_class": "P", "feature_code": "PPL", "country_code": "HK", "admin1_code": "NYL", "population": 40357, "dem": 18, "timezone": "Asia/Hong_Kong", "modification_date": "2024-01-02", "country": "Hong Kong" }, "geometry": { "type": "Point", "coordinates": [ 114.09226, 22.4461 ] } },
{ "type": "Feature", "properties": { "geoname_id": "12719443", "name": "Wu Kai Sha", "ascii_name": "Wu Kai Sha", "latitude": "22.43016", "longitude": "114.24212", "feature_class": "P", "feature_code": "PPL", "country_code": "HK", "admin1_code": "NST", "population": 23511, "dem": -9999, "timezone": "Asia/Hong_Kong", "modification_date": "2024-01-29", "country": "Hong Kong" }, "geometry": { "type": "Point", "coordinates": [ 114.24212, 22.43016 ] } },
{ "type": "Feature", "properties": { "geoname_id": "12719555", "name": "Shek Kip Mei Estate", "ascii_name": "Shek Kip Mei Estate", "latitude": "22.33412", "longitude": "114.16531", "feature_class": "P", "feature_code": "PPLX", "country_code": "HK", "admin1_code": "KSS", "population": 25561, "dem": 12, "timezone": "Asia/Hong_Kong", "modification_date": "2024-01-30", "country": "Hong Kong" }, "geometry": { "type": "Point", "coordinates": [ 114.16531, 22.33412 ] } },
{ "type": "Feature", "properties": { "geoname_id": "12719566", "name": "Mei Foo Sun Chuen", "ascii_name": "Mei Foo Sun Chuen", "latitude": "22.33636", "longitude": "114.14018", "feature_class": "P", "feature_code": "PPLX", "country_code": "HK", "admin1_code": "KSS", "population": 37299, "dem": 2, "timezone": "Asia/Hong_Kong", "modification_date": "2024-01-30", "country": "Hong Kong" }, "geometry": { "type": "Point", "coordinates": [ 114.14018, 22.33636 ] } },
{ "type": "Feature", "properties": { "geoname_id": "12719572", "name": "Fu Cheong Estate", "ascii_name": "Fu Cheong Estate", "latitude": "22.32891", "longitude": "114.15399", "feature_class": "P", "feature_code": "PPL", "country_code": "HK", "admin1_code": "KSS", "population": 15655, "dem": 1, "timezone": "Asia/Hong_Kong", "modification_date": "2024-01-30", "country": "Hong Kong" }, "geometry": { "type": "Point", "coordinates": [ 114.15399, 22.32891 ] } },
{ "type": "Feature", "properties": { "geoname_id": "12719577", "name": "Chak On Estate", "ascii_name": "Chak On Estate", "latitude": "22.34029", "longitude": "114.16454", "feature_class": "P", "feature_code": "PPL", "country_code": "HK", "admin1_code": "KSS", "population": 3913, "dem": 12, "timezone": "Asia/Hong_Kong", "modification_date": "2024-01-30", "country": "Hong Kong" }, "geometry": { "type": "Point", "coordinates": [ 114.16454, 22.34029 ] } },
{ "type": "Feature", "properties": { "geoname_id": "12719594", "name": "Kai Tsui Court", "ascii_name": "Kai Tsui Court", "latitude": "22.26158", "longitude": "114.25105", "feature_class": "P", "feature_code": "PPL", "country_code": "HK", "admin1_code": "HEA", "population": 3379, "dem": -9999, "timezone": "Asia/Hong_Kong", "modification_date": "2024-01-30", "country": "Hong Kong" }, "geometry": { "type": "Point", "coordinates": [ 114.25105, 22.26158 ] } },
{ "type": "Feature", "properties": { "geoname_id": "12719612", "name": "Cheerful Garden", "ascii_name": "Cheerful Garden", "latitude": "22.263", "longitude": "114.25063", "feature_class": "P", "feature_code": "PPL", "country_code": "HK", "admin1_code": "HEA", "population": 5367, "dem": -9999, "timezone": "Asia/Hong_Kong", "modification_date": "2024-01-30", "country": "Hong Kong" }, "geometry": { "type": "Point", "coordinates": [ 114.25063, 22.263 ] } },
{ "type": "Feature", "properties": { "geoname_id": "1818550", "name": "Tiu Keng Leng", "ascii_name": "Tiu Keng Leng", "alternate_names": [ "Rennie's Mill", "Rennie's Mill Camp", "Rennie's Mill Village", "Rennie’s Mill", "Rennie’s Mill Camp", "Rennie’s Mill Village", "Tiaojingling", "Tiu Keng Leng", "Tiu Keng Wan", "diao jing ling", "調景嶺", "调景岭" ], "latitude": "22.29853", "longitude": "114.25115", "feature_class": "P", "feature_code": "PPL", "country_code": "HK", "admin1_code": "KKT", "population": 51751, "dem": 137, "timezone": "Asia/Hong_Kong", "modification_date": "2023-12-31", "country": "Hong Kong" }, "geometry": { "type": "Point", "coordinates": [ 114.25115, 22.29853 ] } },
{ "type": "Feature", "properties": { "geoname_id": "1819706", "name": "Jardine's Lookout", "ascii_name": "Jardine's Lookout", "alternate_names": [ "Jardine's Lookout", "Jardines Lookout", "Zhadianshan", "zha dian shan", "渣甸山" ], "latitude": "22.26857", "longitude": "114.19252", "feature_class": "P", "feature_code": "PPLX", "country_code": "HK", "admin1_code": "HWC", "population": 14459, "dem": 164, "timezone": "Asia/Hong_Kong", "modification_date": "2024-01-02", "country": "Hong Kong" }, "geometry": { "type": "Point", "coordinates": [ 114.19252, 22.26857 ] } },
{ "type": "Feature", "properties": { "geoname_id": "12689056", "name": "Olympic", "ascii_name": "Olympic", "latitude": "22.31939", "longitude": "114.15736", "feature_class": "P", "feature_code": "PPL", "country_code": "HK", "admin1_code": "KYT", "population": 19373, "dem": -9999, "timezone": "Asia/Hong_Kong", "modification_date": "2024-01-02", "country": "Hong Kong" }, "geometry": { "type": "Point", "coordinates": [ 114.15736, 22.31939 ] } },
{ "type": "Feature", "properties": { "geoname_id": "12719438", "name": "Braemar Hill", "ascii_name": "Braemar Hill", "latitude": "22.28282", "longitude": "114.20034", "feature_class": "P", "feature_code": "PPLX", "country_code": "HK", "admin1_code": "HEA", "population": 16171, "dem": 266, "timezone": "Asia/Hong_Kong", "modification_date": "2024-01-29", "country": "Hong Kong" }, "geometry": { "type": "Point", "coordinates": [ 114.20034, 22.28282 ] } },
{ "type": "Feature", "properties": { "geoname_id": "12719442", "name": "Yu Chui", "ascii_name": "Yu Chui", "latitude": "22.38059", "longitude": "114.2053", "feature_class": "P", "feature_code": "PPL", "country_code": "HK", "admin1_code": "NST", "population": 14944, "dem": 1, "timezone": "Asia/Hong_Kong", "modification_date": "2024-01-29", "country": "Hong Kong" }, "geometry": { "type": "Point", "coordinates": [ 114.2053, 22.38059 ] } },
{ "type": "Feature", "properties": { "geoname_id": "12719601", "name": "Tung Tao Court", "ascii_name": "Tung Tao Court", "latitude": "22.28181", "longitude": "114.22549", "feature_class": "P", "feature_code": "PPL", "country_code": "HK", "admin1_code": "HEA", "population": 3506, "dem": -9999, "timezone": "Asia/Hong_Kong", "modification_date": "2024-01-30", "country": "Hong Kong" }, "geometry": { "type": "Point", "coordinates": [ 114.22549, 22.28181 ] } },
{ "type": "Feature", "properties": { "geoname_id": "12719613", "name": "Harmony Garden", "ascii_name": "Harmony Garden", "latitude": "22.26573", "longitude": "114.2487", "feature_class": "P", "feature_code": "PPL", "country_code": "HK", "admin1_code": "HEA", "population": 6697, "dem": -9999, "timezone": "Asia/Hong_Kong", "modification_date": "2024-01-30", "country": "Hong Kong" }, "geometry": { "type": "Point", "coordinates": [ 114.2487, 22.26573 ] } },
{ "type": "Feature", "properties": { "geoname_id": "12746541", "name": "Tsz Ching Estate", "ascii_name": "Tsz Ching Estate", "latitude": "22.35099", "longitude": "114.20056", "feature_class": "P", "feature_code": "PPL", "country_code": "HK", "admin1_code": "KWT", "population": 21845, "dem": 290, "timezone": "Asia/Hong_Kong", "modification_date": "2024-02-19", "country": "Hong Kong" }, "geometry": { "type": "Point", "coordinates": [ 114.20056, 22.35099 ] } },
{ "type": "Feature", "properties": { "geoname_id": "1818236", "name": "Yue Kwong Chuen", "ascii_name": "Yue Kwong Chuen", "latitude": "22.25158", "longitude": "114.15764", "feature_class": "P", "feature_code": "PPL", "country_code": "HK", "admin1_code": "HSO", "population": 2679, "dem": 64, "timezone": "Asia/Hong_Kong", "modification_date": "2024-02-01", "country": "Hong Kong" }, "geometry": { "type": "Point", "coordinates": [ 114.15764, 22.25158 ] } },
{ "type": "Feature", "properties": { "geoname_id": "1818264", "name": "Yau Yat Chuen", "ascii_name": "Yau Yat Chuen", "alternate_names": [ "Yau Yat", "Yau Yat Chuen", "Yau Yat Tsuen", "Yauyattsuen", "you yi cun", "又一村" ], "latitude": "22.33101", "longitude": "114.17413", "feature_class": "P", "feature_code": "PPLX", "country_code": "HK", "admin1_code": "KSS", "population": 14059, "dem": 11, "timezone": "Asia/Hong_Kong", "modification_date": "2024-01-13", "country": "Hong Kong" }, "geometry": { "type": "Point", "coordinates": [ 114.17413, 22.33101 ] } },
{ "type": "Feature", "properties": { "geoname_id": "1818349", "name": "Wo Che", "ascii_name": "Wo Che", "alternate_names": [ "Ha Wo Che", "Wo Che", "he she", "禾輋" ], "latitude": "22.39016", "longitude": "114.19217", "feature_class": "P", "feature_code": "PPL", "country_code": "HK", "admin1_code": "NST", "population": 17572, "dem": 33, "timezone": "Asia/Hong_Kong", "modification_date": "2023-12-13", "country": "Hong Kong" }, "geometry": { "type": "Point", "coordinates": [ 114.19217, 22.39016 ] } },
{ "type": "Feature", "properties": { "geoname_id": "1818365", "name": "Wang Tau Hom", "ascii_name": "Wang Tau Hom", "alternate_names": [ "Wang Tau Hom" ], "latitude": "22.3401", "longitude": "114.18732", "feature_class": "P", "feature_code": "PPLX", "country_code": "HK", "admin1_code": "KKC", "population": 16936, "dem": 34, "timezone": "Asia/Hong_Kong", "modification_date": "2024-01-29", "country": "Hong Kong" }, "geometry": { "type": "Point", "coordinates": [ 114.18732, 22.3401 ] } },
{ "type": "Feature", "properties": { "geoname_id": "1818444", "name": "Tuen Mun San Hui", "ascii_name": "Tuen Mun San Hui", "alternate_names": [ "Han Hui", "San Hui", "Tuen Mun San Hui", "Tunmen Xinxu", "tun men xin xu", "屯門新墟" ], "latitude": "22.39877", "longitude": "113.97596", "feature_class": "P", "feature_code": "PPL", "country_code": "HK", "admin1_code": "NTM", "population": 19398, "dem": 18, "timezone": "Asia/Hong_Kong", "modification_date": "2024-01-02", "country": "Hong Kong" }, "geometry": { "type": "Point", "coordinates": [ 113.97596, 22.39877 ] } },
{ "type": "Feature", "properties": { "geoname_id": "1818892", "name": "Shek Lei", "ascii_name": "Shek Lei", "alternate_names": [ "Shek Lei", "Shili", "shi li", "石梨" ], "latitude": "22.36613", "longitude": "114.13982", "feature_class": "P", "feature_code": "PPLX", "country_code": "HK", "admin1_code": "NKT", "population": 31788, "dem": 68, "timezone": "Asia/Hong_Kong", "modification_date": "2024-01-09", "country": "Hong Kong" }, "geometry": { "type": "Point", "coordinates": [ 114.13982, 22.36613 ] } },
{ "type": "Feature", "properties": { "geoname_id": "1819395", "name": "Ma Tau Kok", "ascii_name": "Ma Tau Kok", "alternate_names": [ "ma tou jiao", "馬頭角" ], "latitude": "22.3215", "longitude": "114.1905", "feature_class": "P", "feature_code": "PPLX", "country_code": "HK", "admin1_code": "KKC", "population": 14397, "dem": 22, "timezone": "Asia/Hong_Kong", "modification_date": "2023-12-05", "country": "Hong Kong" }, "geometry": { "type": "Point", "coordinates": [ 114.1905, 22.3215 ] } },
{ "type": "Feature", "properties": { "geoname_id": "12640687", "name": "The Peak", "ascii_name": "The Peak", "alternate_names": [ "shan ding", "山頂" ], "latitude": "22.26202", "longitude": "114.15649", "feature_class": "P", "feature_code": "PPLX", "country_code": "HK", "admin1_code": "HCW", "population": 19202, "dem": 321, "timezone": "Asia/Hong_Kong", "modification_date": "2023-12-05", "country": "Hong Kong" }, "geometry": { "type": "Point", "coordinates": [ 114.15649, 22.26202 ] } },
{ "type": "Feature", "properties": { "geoname_id": "12719560", "name": "Liberte", "ascii_name": "Liberte", "latitude": "22.33465", "longitude": "114.14886", "feature_class": "P", "feature_code": "PPLX", "country_code": "HK", "admin1_code": "KSS", "population": 6009, "dem": 2, "timezone": "Asia/Hong_Kong", "modification_date": "2024-01-30", "country": "Hong Kong" }, "geometry": { "type": "Point", "coordinates": [ 114.14886, 22.33465 ] } },
{ "type": "Feature", "properties": { "geoname_id": "12719584", "name": "The Belcher's", "ascii_name": "The Belcher's", "latitude": "22.28481", "longitude": "114.13329", "feature_class": "P", "feature_code": "PPL", "country_code": "HK", "admin1_code": "HCW", "population": 7265, "dem": -9999, "timezone": "Asia/Hong_Kong", "modification_date": "2024-01-30", "country": "Hong Kong" }, "geometry": { "type": "Point", "coordinates": [ 114.13329, 22.28481 ] } },
{ "type": "Feature", "properties": { "geoname_id": "12719619", "name": "Metropole Building", "ascii_name": "Metropole Building", "latitude": "22.29056", "longitude": "114.19942", "feature_class": "P", "feature_code": "PPL", "country_code": "HK", "admin1_code": "HEA", "population": 2980, "dem": 42, "timezone": "Asia/Hong_Kong", "modification_date": "2024-01-30", "country": "Hong Kong" }, "geometry": { "type": "Point", "coordinates": [ 114.19942, 22.29056 ] } },
{ "type": "Feature", "properties": { "geoname_id": "12719629", "name": "Hing Wah Estate (I & II)", "ascii_name": "Hing Wah Estate (I & II)", "latitude": "22.26309", "longitude": "114.23506", "feature_class": "P", "feature_code": "PPL", "country_code": "HK", "admin1_code": "HEA", "population": 14339, "dem": -9999, "timezone": "Asia/Hong_Kong", "modification_date": "2024-01-30", "country": "Hong Kong" }, "geometry": { "type": "Point", "coordinates": [ 114.23506, 22.26309 ] } },
{ "type": "Feature", "properties": { "geoname_id": "12719800", "name": "Baguio Villa", "ascii_name": "Baguio Villa", "latitude": "22.26234", "longitude": "114.13364", "feature_class": "P", "feature_code": "PPL", "country_code": "HK", "admin1_code": "HSO", "population": 5339, "dem": 157, "timezone": "Asia/Hong_Kong", "modification_date": "2024-02-01", "country": "Hong Kong" }, "geometry": { "type": "Point", "coordinates": [ 114.13364, 22.26234 ] } },
{ "type": "Feature", "properties": { "geoname_id": "12746540", "name": "Kingsford Terrace", "ascii_name": "Kingsford Terrace", "latitude": "22.34031", "longitude": "114.21125", "feature_class": "P", "feature_code": "PPL", "country_code": "HK", "admin1_code": "KWT", "population": 5698, "dem": 66, "timezone": "Asia/Hong_Kong", "modification_date": "2024-02-19", "country": "Hong Kong" }, "geometry": { "type": "Point", "coordinates": [ 114.21125, 22.34031 ] } },
{ "type": "Feature", "properties": { "geoname_id": "1818616", "name": "Tai Wo", "ascii_name": "Tai Wo", "alternate_names": [ "Tai Wo Market", "tai he", "太和" ], "latitude": "22.45151", "longitude": "114.16115", "feature_class": "P", "feature_code": "PPL", "country_code": "HK", "admin1_code": "NTP", "population": 12752, "dem": 37, "timezone": "Asia/Hong_Kong", "modification_date": "2023-12-05", "country": "Hong Kong" }, "geometry": { "type": "Point", "coordinates": [ 114.16115, 22.45151 ] } },
{ "type": "Feature", "properties": { "geoname_id": "1818771", "name": "So Kwun Wat", "ascii_name": "So Kwun Wat", "alternate_names": [ "Saoguanhu", "So Kun Wat", "So Kwun Wat", "sao guan hu", "扫管笏", "掃管笏" ], "latitude": "22.37594", "longitude": "114.00682", "feature_class": "P", "feature_code": "PPL", "country_code": "HK", "admin1_code": "NTM", "population": 14475, "dem": 7, "timezone": "Asia/Hong_Kong", "modification_date": "2023-12-12", "country": "Hong Kong" }, "geometry": { "type": "Point", "coordinates": [ 114.00682, 22.37594 ] } },
{ "type": "Feature", "properties": { "geoname_id": "1819003", "name": "San Po Kong", "ascii_name": "San Po Kong", "alternate_names": [ "San Po Kong", "xin pu gang", "新蒲崗" ], "latitude": "22.33546", "longitude": "114.19669", "feature_class": "P", "feature_code": "PPLX", "country_code": "HK", "admin1_code": "KWT", "population": 18199, "dem": 24, "timezone": "Asia/Hong_Kong", "modification_date": "2023-12-05", "country": "Hong Kong" }, "geometry": { "type": "Point", "coordinates": [ 114.19669, 22.33546 ] } },
{ "type": "Feature", "properties": { "geoname_id": "1819029", "name": "Sai Wan Ho", "ascii_name": "Sai Wan Ho", "alternate_names": [ "Sai Wan Ho", "Xiwanhe", "xi wan he", "西湾河", "西灣河" ], "latitude": "22.28449", "longitude": "114.2232", "feature_class": "P", "feature_code": "PPLX", "country_code": "HK", "admin1_code": "HEA", "population": 18771, "dem": 12, "timezone": "Asia/Hong_Kong", "modification_date": "2023-12-05", "country": "Hong Kong" }, "geometry": { "type": "Point", "coordinates": [ 114.2232, 22.28449 ] } },
{ "type": "Feature", "properties": { "geoname_id": "1819101", "name": "Ping Shan", "ascii_name": "Ping Shan", "alternate_names": [ "P'ing-shan-hsu", "Ping Shan", "P’ing-shan-hsü", "ping shan", "屏山" ], "latitude": "22.44111", "longitude": "114.00608", "feature_class": "P", "feature_code": "PPL", "country_code": "HK", "admin1_code": "NYL", "population": 45400, "dem": 3, "timezone": "Asia/Hong_Kong", "modification_date": "2022-06-08", "country": "Hong Kong" }, "geometry": { "type": "Point", "coordinates": [ 114.00608, 22.44111 ] } },
{ "type": "Feature", "properties": { "geoname_id": "12689059", "name": "Laguna City", "ascii_name": "Laguna City", "latitude": "22.30554", "longitude": "114.22861", "feature_class": "P", "feature_code": "PPL", "country_code": "HK", "admin1_code": "KKT", "population": 22718, "dem": 19, "timezone": "Asia/Hong_Kong", "modification_date": "2024-01-02", "country": "Hong Kong" }, "geometry": { "type": "Point", "coordinates": [ 114.22861, 22.30554 ] } },
{ "type": "Feature", "properties": { "geoname_id": "12719444", "name": "Lee On", "ascii_name": "Lee On", "latitude": "22.42635", "longitude": "114.24133", "feature_class": "P", "feature_code": "PPL", "country_code": "HK", "admin1_code": "NST", "population": 15621, "dem": 6, "timezone": "Asia/Hong_Kong", "modification_date": "2024-01-29", "country": "Hong Kong" }, "geometry": { "type": "Point", "coordinates": [ 114.24133, 22.42635 ] } },
{ "type": "Feature", "properties": { "geoname_id": "12719540", "name": "Sam Shing", "ascii_name": "Sam Shing", "latitude": "22.38128", "longitude": "113.97872", "feature_class": "P", "feature_code": "PPL", "country_code": "HK", "admin1_code": "NTM", "population": 16423, "dem": 1, "timezone": "Asia/Hong_Kong", "modification_date": "2024-01-30", "country": "Hong Kong" }, "geometry": { "type": "Point", "coordinates": [ 113.97872, 22.38128 ] } },
{ "type": "Feature", "properties": { "geoname_id": "12719578", "name": "Lai On Estate", "ascii_name": "Lai On Estate", "latitude": "22.33135", "longitude": "114.15857", "feature_class": "P", "feature_code": "PPL", "country_code": "HK", "admin1_code": "KSS", "population": 3534, "dem": 3, "timezone": "Asia/Hong_Kong", "modification_date": "2024-01-30", "country": "Hong Kong" }, "geometry": { "type": "Point", "coordinates": [ 114.15857, 22.33135 ] } },
{ "type": "Feature", "properties": { "geoname_id": "12719595", "name": "Provident Centre", "ascii_name": "Provident Centre", "latitude": "22.29214", "longitude": "114.19566", "feature_class": "P", "feature_code": "PPL", "country_code": "HK", "admin1_code": "HEA", "population": 4873, "dem": -9999, "timezone": "Asia/Hong_Kong", "modification_date": "2024-01-30", "country": "Hong Kong" }, "geometry": { "type": "Point", "coordinates": [ 114.19566, 22.29214 ] } },
{ "type": "Feature", "properties": { "geoname_id": "12719623", "name": "Yue Wan Estate", "ascii_name": "Yue Wan Estate", "latitude": "22.26592", "longitude": "114.24129", "feature_class": "P", "feature_code": "PPL", "country_code": "HK", "admin1_code": "HEA", "population": 7998, "dem": -9999, "timezone": "Asia/Hong_Kong", "modification_date": "2024-01-30", "country": "Hong Kong" }, "geometry": { "type": "Point", "coordinates": [ 114.24129, 22.26592 ] } },
{ "type": "Feature", "properties": { "geoname_id": "12719631", "name": "Braemar Hill Mansions", "ascii_name": "Braemar Hill Mansions", "latitude": "22.28543", "longitude": "114.20114", "feature_class": "P", "feature_code": "PPL", "country_code": "HK", "admin1_code": "HEA", "population": 3045, "dem": 141, "timezone": "Asia/Hong_Kong", "modification_date": "2024-01-30", "country": "Hong Kong" }, "geometry": { "type": "Point", "coordinates": [ 114.20114, 22.28543 ] } },
{ "type": "Feature", "properties": { "geoname_id": "12719803", "name": "Harbour Green", "ascii_name": "Harbour Green", "latitude": "22.32127", "longitude": "114.15931", "feature_class": "P", "feature_code": "PPL", "country_code": "HK", "admin1_code": "KYT", "population": 3329, "dem": 1, "timezone": "Asia/Hong_Kong", "modification_date": "2024-02-01", "country": "Hong Kong" }, "geometry": { "type": "Point", "coordinates": [ 114.15931, 22.32127 ] } },
{ "type": "Feature", "properties": { "geoname_id": "12719814", "name": "Sorrento", "ascii_name": "Sorrento", "latitude": "22.30641", "longitude": "114.16226", "feature_class": "P", "feature_code": "PPL", "country_code": "HK", "admin1_code": "KYT", "population": 5802, "dem": -9999, "timezone": "Asia/Hong_Kong", "modification_date": "2024-02-01", "country": "Hong Kong" }, "geometry": { "type": "Point", "coordinates": [ 114.16226, 22.30641 ] } },
{ "type": "Feature", "properties": { "geoname_id": "1818268", "name": "Yau Ma Tei", "ascii_name": "Yau Ma Tei", "alternate_names": [ "Yau Ma Tei", "Yau Ma Ti", "Youmadi", "you ma de", "油麻地" ], "latitude": "22.3138", "longitude": "114.16857", "feature_class": "P", "feature_code": "PPLX", "country_code": "HK", "admin1_code": "KYT", "population": 29644, "dem": 16, "timezone": "Asia/Hong_Kong", "modification_date": "2024-01-07", "country": "Hong Kong" }, "geometry": { "type": "Point", "coordinates": [ 114.16857, 22.3138 ] } },
{ "type": "Feature", "properties": { "geoname_id": "1818628", "name": "Tai Wai", "ascii_name": "Tai Wai", "alternate_names": [ "da wei", "大圍" ], "latitude": "22.37286", "longitude": "114.17897", "feature_class": "P", "feature_code": "PPL", "country_code": "HK", "admin1_code": "NST", "population": 19924, "dem": 8, "timezone": "Asia/Hong_Kong", "modification_date": "2023-09-22", "country": "Hong Kong" }, "geometry": { "type": "Point", "coordinates": [ 114.17897, 22.37286 ] } },
{ "type": "Feature", "properties": { "geoname_id": "1818692", "name": "Tai Mong Tsai", "ascii_name": "Tai Mong Tsai", "alternate_names": [ "Dawangzai", "Tai Mong Tsai", "da wang zi", "大網仔", "大网仔" ], "latitude": "22.40034", "longitude": "114.30249", "feature_class": "P", "feature_code": "PPL", "country_code": "HK", "admin1_code": "NSK", "population": 11526, "dem": 50, "timezone": "Asia/Hong_Kong", "modification_date": "2023-11-28", "country": "Hong Kong" }, "geometry": { "type": "Point", "coordinates": [ 114.30249, 22.40034 ] } },
{ "type": "Feature", "properties": { "geoname_id": "1819050", "name": "Sai Kung", "ascii_name": "Sai Kung", "alternate_names": [ "Sai Kung", "xi gong", "西貢", "西贡" ], "latitude": "22.38333", "longitude": "114.26667", "feature_class": "P", "feature_code": "PPLA", "country_code": "HK", "admin1_code": "NSK", "population": 35800, "dem": 54, "timezone": "Asia/Hong_Kong", "modification_date": "2022-06-08", "country": "Hong Kong" }, "geometry": { "type": "Point", "coordinates": [ 114.26667, 22.38333 ] } },
{ "type": "Feature", "properties": { "geoname_id": "1819609", "name": "Kowloon", "ascii_name": "Kowloon", "alternate_names": [ "Chiu-lung", "Czjulun", "Kaulunas", "Koulun", "Kowloon", "jiu long", "julung", "Цзюлун", "九龍", "九龙", "주룽" ], "latitude": "22.31667", "longitude": "114.18333", "feature_class": "P", "feature_code": "PPLA", "country_code": "HK", "admin1_code": "KKC", "population": 2303100, "dem": 92, "timezone": "Asia/Hong_Kong", "modification_date": "2024-02-26", "country": "Hong Kong" }, "geometry": { "type": "Point", "coordinates": [ 114.18333, 22.31667 ] } },
{ "type": "Feature", "properties": { "geoname_id": "7778986", "name": "Fortress Hill", "ascii_name": "Fortress Hill", "alternate_names": [ "fotoresuhiru", "pao tai shan", "フォートレスヒル", "炮臺山", "砲台山" ], "latitude": "22.28858", "longitude": "114.19417", "feature_class": "P", "feature_code": "PPL", "country_code": "HK", "admin1_code": "HEA", "population": 15464, "dem": 52, "timezone": "Asia/Hong_Kong", "modification_date": "2023-12-05", "country": "Hong Kong" }, "geometry": { "type": "Point", "coordinates": [ 114.19417, 22.28858 ] } },
{ "type": "Feature", "properties": { "geoname_id": "12640681", "name": "Mei Foo", "ascii_name": "Mei Foo", "alternate_names": [ "Meifoo", "mei fu", "美孚" ], "latitude": "22.33719", "longitude": "114.13856", "feature_class": "P", "feature_code": "PPLX", "country_code": "HK", "admin1_code": "KSS", "population": 45990, "dem": 2, "timezone": "Asia/Hong_Kong", "modification_date": "2023-12-05", "country": "Hong Kong" }, "geometry": { "type": "Point", "coordinates": [ 114.13856, 22.33719 ] } },
{ "type": "Feature", "properties": { "geoname_id": "12689053", "name": "Fuk Loi", "ascii_name": "Fuk Loi", "latitude": "22.37405", "longitude": "114.11352", "feature_class": "P", "feature_code": "PPL", "country_code": "HK", "admin1_code": "NTW", "population": 13490, "dem": 1, "timezone": "Asia/Hong_Kong", "modification_date": "2024-01-02", "country": "Hong Kong" }, "geometry": { "type": "Point", "coordinates": [ 114.11352, 22.37405 ] } },
{ "type": "Feature", "properties": { "geoname_id": "12719441", "name": "Kwong Yuen", "ascii_name": "Kwong Yuen", "latitude": "22.38005", "longitude": "114.21361", "feature_class": "P", "feature_code": "PPL", "country_code": "HK", "admin1_code": "NST", "population": 11716, "dem": 51, "timezone": "Asia/Hong_Kong", "modification_date": "2024-01-29", "country": "Hong Kong" }, "geometry": { "type": "Point", "coordinates": [ 114.21361, 22.38005 ] } },
{ "type": "Feature", "properties": { "geoname_id": "12719599", "name": "Tung Hei Court", "ascii_name": "Tung Hei Court", "latitude": "22.28031", "longitude": "114.21886", "feature_class": "P", "feature_code": "PPL", "country_code": "HK", "admin1_code": "HEA", "population": 6262, "dem": -9999, "timezone": "Asia/Hong_Kong", "modification_date": "2024-01-30", "country": "Hong Kong" }, "geometry": { "type": "Point", "coordinates": [ 114.21886, 22.28031 ] } },
{ "type": "Feature", "properties": { "geoname_id": "12719818", "name": "Celestial Heights", "ascii_name": "Celestial Heights", "latitude": "22.31922", "longitude": "114.18556", "feature_class": "P", "feature_code": "PPL", "country_code": "HK", "admin1_code": "KKC", "population": 3265, "dem": 19, "timezone": "Asia/Hong_Kong", "modification_date": "2024-02-01", "country": "Hong Kong" }, "geometry": { "type": "Point", "coordinates": [ 114.18556, 22.31922 ] } },
{ "type": "Feature", "properties": { "geoname_id": "12746517", "name": "Chuk Yuen North Estate", "ascii_name": "Chuk Yuen North Estate", "latitude": "22.34592", "longitude": "114.19197", "feature_class": "P", "feature_code": "PPL", "country_code": "HK", "admin1_code": "KWT", "population": 16989, "dem": 44, "timezone": "Asia/Hong_Kong", "modification_date": "2024-02-19", "country": "Hong Kong" }, "geometry": { "type": "Point", "coordinates": [ 114.19197, 22.34592 ] } },
{ "type": "Feature", "properties": { "geoname_id": "1818266", "name": "Yau Tong", "ascii_name": "Yau Tong", "alternate_names": [ "Yau Tong", "you tang", "油塘" ], "latitude": "22.29569", "longitude": "114.23599", "feature_class": "P", "feature_code": "PPLX", "country_code": "HK", "admin1_code": "KKT", "population": 34755, "dem": 17, "timezone": "Asia/Hong_Kong", "modification_date": "2023-12-05", "country": "Hong Kong" }, "geometry": { "type": "Point", "coordinates": [ 114.23599, 22.29569 ] } },
{ "type": "Feature", "properties": { "geoname_id": "1818920", "name": "Sha Tin", "ascii_name": "Sha Tin", "alternate_names": [ "Sha Tin", "Sha Tin New Town", "Shatin" ], "latitude": "22.38333", "longitude": "114.18333", "feature_class": "P", "feature_code": "PPLA", "country_code": "HK", "admin1_code": "NST", "population": 495200, "dem": 115, "timezone": "Asia/Hong_Kong", "modification_date": "2023-12-12", "country": "Hong Kong" }, "geometry": { "type": "Point", "coordinates": [ 114.18333, 22.38333 ] } },
{ "type": "Feature", "properties": { "geoname_id": "12689067", "name": "Siu Hei", "ascii_name": "Siu Hei", "latitude": "22.37359", "longitude": "113.9671", "feature_class": "P", "feature_code": "PPL", "country_code": "HK", "admin1_code": "NTM", "population": 12206, "dem": -9999, "timezone": "Asia/Hong_Kong", "modification_date": "2024-01-02", "country": "Hong Kong" }, "geometry": { "type": "Point", "coordinates": [ 113.9671, 22.37359 ] } },
{ "type": "Feature", "properties": { "geoname_id": "12719579", "name": "Lai Tsui Court", "ascii_name": "Lai Tsui Court", "latitude": "22.33376", "longitude": "114.15506", "feature_class": "P", "feature_code": "PPL", "country_code": "HK", "admin1_code": "KSS", "population": 10438, "dem": 1, "timezone": "Asia/Hong_Kong", "modification_date": "2024-01-30", "country": "Hong Kong" }, "geometry": { "type": "Point", "coordinates": [ 114.15506, 22.33376 ] } },
{ "type": "Feature", "properties": { "geoname_id": "12719587", "name": "Siu Sai Wan Estate", "ascii_name": "Siu Sai Wan Estate", "latitude": "22.26155", "longitude": "114.24881", "feature_class": "P", "feature_code": "PPL", "country_code": "HK", "admin1_code": "HEA", "population": 18803, "dem": -9999, "timezone": "Asia/Hong_Kong", "modification_date": "2024-01-30", "country": "Hong Kong" }, "geometry": { "type": "Point", "coordinates": [ 114.24881, 22.26155 ] } },
{ "type": "Feature", "properties": { "geoname_id": "12719635", "name": "Yiu Tung Estate", "ascii_name": "Yiu Tung Estate", "latitude": "22.27849", "longitude": "114.22299", "feature_class": "P", "feature_code": "PPL", "country_code": "HK", "admin1_code": "HEA", "population": 15061, "dem": -9999, "timezone": "Asia/Hong_Kong", "modification_date": "2024-01-30", "country": "Hong Kong" }, "geometry": { "type": "Point", "coordinates": [ 114.22299, 22.27849 ] } },
{ "type": "Feature", "properties": { "geoname_id": "1818259", "name": "Yeung Uk Tsuen", "ascii_name": "Yeung Uk Tsuen", "alternate_names": [ "Yeung Uk" ], "latitude": "22.45", "longitude": "114.01667", "feature_class": "P", "feature_code": "PPL", "country_code": "HK", "admin1_code": "NTW", "population": 16236, "dem": 12, "timezone": "Asia/Hong_Kong", "modification_date": "2024-01-02", "country": "Hong Kong" }, "geometry": { "type": "Point", "coordinates": [ 114.01667, 22.45 ] } },
{ "type": "Feature", "properties": { "geoname_id": "1819595", "name": "Kwai Chung", "ascii_name": "Kwai Chung", "alternate_names": [ "Chung Kwai Chung", "Kuichong", "Kwai Chung", "kui yong", "葵涌" ], "latitude": "22.36828", "longitude": "114.13877", "feature_class": "P", "feature_code": "PPL", "country_code": "HK", "admin1_code": "NKT", "population": 331600, "dem": 84, "timezone": "Asia/Hong_Kong", "modification_date": "2024-02-13", "country": "Hong Kong" }, "geometry": { "type": "Point", "coordinates": [ 114.13877, 22.36828 ] } },
{ "type": "Feature", "properties": { "geoname_id": "11101593", "name": "Tung Chung", "ascii_name": "Tung Chung", "alternate_names": [ "Tung Chung", "dong yong", "东涌", "東涌" ], "latitude": "22.28783", "longitude": "113.94243", "feature_class": "P", "feature_code": "PPL", "country_code": "HK", "admin1_code": "NIS", "population": 114100, "dem": 45, "timezone": "Asia/Hong_Kong", "modification_date": "2022-06-08", "country": "Hong Kong" }, "geometry": { "type": "Point", "coordinates": [ 113.94243, 22.28783 ] } },
{ "type": "Feature", "properties": { "geoname_id": "12719575", "name": "Wing Cheong Estate", "ascii_name": "Wing Cheong Estate", "latitude": "22.32928", "longitude": "114.15548", "feature_class": "P", "feature_code": "PPL", "country_code": "HK", "admin1_code": "KSS", "population": 3620, "dem": 1, "timezone": "Asia/Hong_Kong", "modification_date": "2024-01-30", "country": "Hong Kong" }, "geometry": { "type": "Point", "coordinates": [ 114.15548, 22.32928 ] } },
{ "type": "Feature", "properties": { "geoname_id": "12719802", "name": "Pokfulam Gardens", "ascii_name": "Pokfulam Gardens", "latitude": "22.25776", "longitude": "114.13751", "feature_class": "P", "feature_code": "PPL", "country_code": "HK", "admin1_code": "HSO", "population": 3005, "dem": 51, "timezone": "Asia/Hong_Kong", "modification_date": "2024-02-01", "country": "Hong Kong" }, "geometry": { "type": "Point", "coordinates": [ 114.13751, 22.25776 ] } },
{ "type": "Feature", "properties": { "geoname_id": "12746550", "name": "The Latitude", "ascii_name": "The Latitude", "latitude": "22.33339", "longitude": "114.19664", "feature_class": "P", "feature_code": "PPL", "country_code": "HK", "admin1_code": "KWT", "population": 3264, "dem": 10, "timezone": "Asia/Hong_Kong", "modification_date": "2024-02-19", "country": "Hong Kong" }, "geometry": { "type": "Point", "coordinates": [ 114.19664, 22.33339 ] } },
{ "type": "Feature", "properties": { "geoname_id": "1818385", "name": "Wah Fu", "ascii_name": "Wah Fu", "alternate_names": [ "Huafu Cun", "Wah Fu", "Wah Fu Estate", "hua fu cun", "华富邨", "華富邨" ], "latitude": "22.25474", "longitude": "114.13622", "feature_class": "P", "feature_code": "PPL", "country_code": "HK", "admin1_code": "HSO", "population": 26275, "dem": 55, "timezone": "Asia/Hong_Kong", "modification_date": "2023-12-05", "country": "Hong Kong" }, "geometry": { "type": "Point", "coordinates": [ 114.13622, 22.25474 ] } },
{ "type": "Feature", "properties": { "geoname_id": "1818506", "name": "Tseung Kwan O", "ascii_name": "Tseung Kwan O", "alternate_names": [ "Chan ji", "Cheung Kwan", "Cheung Kwan O", "Tseung Kwan O" ], "latitude": "22.32789", "longitude": "114.24992", "feature_class": "P", "feature_code": "PPL", "country_code": "HK", "admin1_code": "NSK", "population": 412900, "dem": 19, "timezone": "Asia/Hong_Kong", "modification_date": "2022-06-08", "country": "Hong Kong" }, "geometry": { "type": "Point", "coordinates": [ 114.24992, 22.32789 ] } },
{ "type": "Feature", "properties": { "geoname_id": "1819394", "name": "Ma Tau Wai", "ascii_name": "Ma Tau Wai", "alternate_names": [ "gu jin wei", "ma tou wei", "古瑾圍", "碼頭圍", "馬頭圍" ], "latitude": "22.32074", "longitude": "114.18743", "feature_class": "P", "feature_code": "PPLX", "country_code": "HK", "admin1_code": "KKC", "population": 20185, "dem": 26, "timezone": "Asia/Hong_Kong", "modification_date": "2023-12-05", "country": "Hong Kong" }, "geometry": { "type": "Point", "coordinates": [ 114.18743, 22.32074 ] } },
{ "type": "Feature", "properties": { "geoname_id": "1819726", "name": "Hong Lok Yuen", "ascii_name": "Hong Lok Yuen", "alternate_names": [ "kang le yuan", "康樂園" ], "latitude": "22.46315", "longitude": "114.1552", "feature_class": "P", "feature_code": "PPL", "country_code": "HK", "admin1_code": "NTP", "population": 20389, "dem": 33, "timezone": "Asia/Hong_Kong", "modification_date": "2024-01-02", "country": "Hong Kong" }, "geometry": { "type": "Point", "coordinates": [ 114.1552, 22.46315 ] } },
{ "type": "Feature", "properties": { "geoname_id": "12689054", "name": "Discovery Park", "ascii_name": "Discovery Park", "latitude": "22.37621", "longitude": "114.11141", "feature_class": "P", "feature_code": "PPL", "country_code": "HK", "admin1_code": "NTW", "population": 17325, "dem": 40, "timezone": "Asia/Hong_Kong", "modification_date": "2024-01-02", "country": "Hong Kong" }, "geometry": { "type": "Point", "coordinates": [ 114.11141, 22.37621 ] } },
{ "type": "Feature", "properties": { "geoname_id": "12689055", "name": "Nam Cheong", "ascii_name": "Nam Cheong", "latitude": "22.32799", "longitude": "114.15389", "feature_class": "P", "feature_code": "PPLX", "country_code": "HK", "admin1_code": "KSS", "population": 74780, "dem": 1, "timezone": "Asia/Hong_Kong", "modification_date": "2024-01-02", "country": "Hong Kong" }, "geometry": { "type": "Point", "coordinates": [ 114.15389, 22.32799 ] } },
{ "type": "Feature", "properties": { "geoname_id": "12689069", "name": "Fairview Park", "ascii_name": "Fairview Park", "latitude": "22.46738", "longitude": "114.04766", "feature_class": "P", "feature_code": "PPL", "country_code": "HK", "admin1_code": "NYL", "population": 20268, "dem": 2, "timezone": "Asia/Hong_Kong", "modification_date": "2024-01-02", "country": "Hong Kong" }, "geometry": { "type": "Point", "coordinates": [ 114.04766, 22.46738 ] } },
{ "type": "Feature", "properties": { "geoname_id": "12719429", "name": "Lok Fu", "ascii_name": "Lok Fu", "latitude": "22.33727", "longitude": "114.18725", "feature_class": "P", "feature_code": "PPL", "country_code": "HK", "admin1_code": "KWT", "population": 14170, "dem": 34, "timezone": "Asia/Hong_Kong", "modification_date": "2024-01-29", "country": "Hong Kong" }, "geometry": { "type": "Point", "coordinates": [ 114.18725, 22.33727 ] } },
{ "type": "Feature", "properties": { "geoname_id": "12719433", "name": "LOHAS Park", "ascii_name": "LOHAS Park", "latitude": "22.29315", "longitude": "114.27245", "feature_class": "P", "feature_code": "PPL", "country_code": "HK", "admin1_code": "NSK", "population": 50000, "dem": 1, "timezone": "Asia/Hong_Kong", "modification_date": "2024-01-29", "country": "Hong Kong" }, "geometry": { "type": "Point", "coordinates": [ 114.27245, 22.29315 ] } },
{ "type": "Feature", "properties": { "geoname_id": "12719544", "name": "City Garden", "ascii_name": "City Garden", "latitude": "22.28997", "longitude": "114.19259", "feature_class": "P", "feature_code": "PPL", "country_code": "HK", "admin1_code": "HEA", "population": 15212, "dem": 42, "timezone": "Asia/Hong_Kong", "modification_date": "2024-01-30", "country": "Hong Kong" }, "geometry": { "type": "Point", "coordinates": [ 114.19259, 22.28997 ] } },
{ "type": "Feature", "properties": { "geoname_id": "12719548", "name": "Jat Min Chuen", "ascii_name": "Jat Min Chuen", "latitude": "22.37609", "longitude": "114.1914", "feature_class": "P", "feature_code": "PPL", "country_code": "HK", "admin1_code": "NST", "population": 9424, "dem": 1, "timezone": "Asia/Hong_Kong", "modification_date": "2024-01-30", "country": "Hong Kong" }, "geometry": { "type": "Point", "coordinates": [ 114.1914, 22.37609 ] } },
{ "type": "Feature", "properties": { "geoname_id": "12719591", "name": "Bedford Garden", "ascii_name": "Bedford Garden", "latitude": "22.28962", "longitude": "114.20454", "feature_class": "P", "feature_code": "PPL", "country_code": "HK", "admin1_code": "HEA", "population": 3950, "dem": 141, "timezone": "Asia/Hong_Kong", "modification_date": "2024-01-30", "country": "Hong Kong" }, "geometry": { "type": "Point", "coordinates": [ 114.20454, 22.28962 ] } },
{ "type": "Feature", "properties": { "geoname_id": "12719628", "name": "Hing Tung Estate", "ascii_name": "Hing Tung Estate", "latitude": "22.28151", "longitude": "114.21943", "feature_class": "P", "feature_code": "PPL", "country_code": "HK", "admin1_code": "HEA", "population": 6076, "dem": -9999, "timezone": "Asia/Hong_Kong", "modification_date": "2024-01-30", "country": "Hong Kong" }, "geometry": { "type": "Point", "coordinates": [ 114.21943, 22.28151 ] } },
{ "type": "Feature", "properties": { "geoname_id": "12719787", "name": "Lei Tung Estate", "ascii_name": "Lei Tung Estate", "latitude": "22.24115", "longitude": "114.15523", "feature_class": "P", "feature_code": "PPL", "country_code": "HK", "admin1_code": "HSO", "population": 18575, "dem": 1, "timezone": "Asia/Hong_Kong", "modification_date": "2024-02-01", "country": "Hong Kong" }, "geometry": { "type": "Point", "coordinates": [ 114.15523, 22.24115 ] } },
{ "type": "Feature", "properties": { "geoname_id": "12719811", "name": "The Waterfront", "ascii_name": "The Waterfront", "latitude": "22.30463", "longitude": "114.16303", "feature_class": "P", "feature_code": "PPL", "country_code": "HK", "admin1_code": "KYT", "population": 4002, "dem": -9999, "timezone": "Asia/Hong_Kong", "modification_date": "2024-02-01", "country": "Hong Kong" }, "geometry": { "type": "Point", "coordinates": [ 114.16303, 22.30463 ] } },
{ "type": "Feature", "properties": { "geoname_id": "12719820", "name": "On Wo Yuen", "ascii_name": "On Wo Yuen", "latitude": "22.31653", "longitude": "114.19132", "feature_class": "P", "feature_code": "PPL", "country_code": "HK", "admin1_code": "KKC", "population": 2781, "dem": 16, "timezone": "Asia/Hong_Kong", "modification_date": "2024-02-01", "country": "Hong Kong" }, "geometry": { "type": "Point", "coordinates": [ 114.19132, 22.31653 ] } },
{ "type": "Feature", "properties": { "geoname_id": "12719831", "name": "Harbour Place", "ascii_name": "Harbour Place", "latitude": "22.30323", "longitude": "114.18619", "feature_class": "P", "feature_code": "PPL", "country_code": "HK", "admin1_code": "KKC", "population": 6704, "dem": 2, "timezone": "Asia/Hong_Kong", "modification_date": "2024-02-01", "country": "Hong Kong" }, "geometry": { "type": "Point", "coordinates": [ 114.18619, 22.30323 ] } },
{ "type": "Feature", "properties": { "geoname_id": "12746522", "name": "Sha Tin Pass Estate", "ascii_name": "Sha Tin Pass Estate", "latitude": "22.34981", "longitude": "114.19515", "feature_class": "P", "feature_code": "PPL", "country_code": "HK", "admin1_code": "KWT", "population": 3063, "dem": 44, "timezone": "Asia/Hong_Kong", "modification_date": "2024-02-19", "country": "Hong Kong" }, "geometry": { "type": "Point", "coordinates": [ 114.19515, 22.34981 ] } },
{ "type": "Feature", "properties": { "geoname_id": "12746539", "name": "Lower Wong Tai Sin Estate (I & II)", "ascii_name": "Lower Wong Tai Sin Estate (I & II)", "alternate_names": [ "Lower Wong Tai Sin Estate", "Lower Wong Tai Sin Estate (I & II)" ], "latitude": "22.33923", "longitude": "114.19441", "feature_class": "P", "feature_code": "PPL", "country_code": "HK", "admin1_code": "KWT", "population": 29542, "dem": 10, "timezone": "Asia/Hong_Kong", "modification_date": "2024-02-19", "country": "Hong Kong" }, "geometry": { "type": "Point", "coordinates": [ 114.19441, 22.33923 ] } },
{ "type": "Feature", "properties": { "geoname_id": "1818223", "name": "Yuen Long Kau Hui", "ascii_name": "Yuen Long Kau Hui", "alternate_names": [ "Yuen Long Kau Hui", "yuan lang jiu xu", "yuan lang xu", "元朗墟", "元朗舊墟" ], "latitude": "22.45", "longitude": "114.03333", "feature_class": "P", "feature_code": "PPL", "country_code": "HK", "admin1_code": "NYL", "population": 169600, "dem": 4, "timezone": "Asia/Hong_Kong", "modification_date": "2024-02-11", "country": "Hong Kong" }, "geometry": { "type": "Point", "coordinates": [ 114.03333, 22.45 ] } },
{ "type": "Feature", "properties": { "geoname_id": "1818734", "name": "Tai Hang", "ascii_name": "Tai Hang", "alternate_names": [ "Dakeng", "Tai Hang", "Tai Hang Village", "Tai hang tsun", "da keng", "大坑" ], "latitude": "22.27851", "longitude": "114.1922", "feature_class": "P", "feature_code": "PPLX", "country_code": "HK", "admin1_code": "HEA", "population": 11425, "dem": 43, "timezone": "Asia/Hong_Kong", "modification_date": "2023-12-05", "country": "Hong Kong" }, "geometry": { "type": "Point", "coordinates": [ 114.1922, 22.27851 ] } },
{ "type": "Feature", "properties": { "geoname_id": "1818916", "name": "Sha Tin Wai", "ascii_name": "Sha Tin Wai", "alternate_names": [ "Sha Tin", "Sha Tin Wai", "Shatian", "Shatianwei", "Shatjan'vehj", "sha tian", "sha tian wei", "Шатяньвэй", "沙田", "沙田围", "沙田圍" ], "latitude": "22.37756", "longitude": "114.19753", "feature_class": "P", "feature_code": "PPL", "country_code": "HK", "admin1_code": "NST", "population": 80000, "dem": 18, "timezone": "Asia/Hong_Kong", "modification_date": "2024-02-11", "country": "Hong Kong" }, "geometry": { "type": "Point", "coordinates": [ 114.19753, 22.37756 ] } },
{ "type": "Feature", "properties": { "geoname_id": "1818923", "name": "Sha Tau Kok", "ascii_name": "Sha Tau Kok", "alternate_names": [ "Sha Tau Kok", "Sha-t'ou-chiao", "Sha-t’ou-chiao", "Shatoujiao", "sha tou jiao", "沙头角", "沙頭角" ], "latitude": "22.54569", "longitude": "114.22379", "feature_class": "P", "feature_code": "PPL", "country_code": "HK", "admin1_code": "NNO", "population": 5001, "dem": 5, "timezone": "Asia/Hong_Kong", "modification_date": "2023-11-28", "country": "Hong Kong" }, "geometry": { "type": "Point", "coordinates": [ 114.22379, 22.54569 ] } },
{ "type": "Feature", "properties": { "geoname_id": "1818953", "name": "Sham Shui Po", "ascii_name": "Sham Shui Po", "alternate_names": [ "Sam shui po", "Shamshuipo", "Shan Shin Po", "shen shui bu qu", "深水埗區" ], "latitude": "22.33023", "longitude": "114.15945", "feature_class": "P", "feature_code": "PPLA", "country_code": "HK", "admin1_code": "KSS", "population": 431090, "dem": 10, "timezone": "Asia/Hong_Kong", "modification_date": "2023-12-11", "country": "Hong Kong" }, "geometry": { "type": "Point", "coordinates": [ 114.15945, 22.33023 ] } },
{ "type": "Feature", "properties": { "geoname_id": "1819072", "name": "Pui O", "ascii_name": "Pui O", "alternate_names": [ "Bei Ao", "Lo Pui O", "Pui O", "Pui O Kau Tsuen", "Pui O San Tsuen", "San Tsun", "bei ao", "貝澳", "贝澳" ], "latitude": "22.24597", "longitude": "113.97817", "feature_class": "P", "feature_code": "PPL", "country_code": "HK", "admin1_code": "NIS", "population": 5001, "dem": 24, "timezone": "Asia/Hong_Kong", "modification_date": "2023-12-12", "country": "Hong Kong" }, "geometry": { "type": "Point", "coordinates": [ 113.97817, 22.24597 ] } },
{ "type": "Feature", "properties": { "geoname_id": "12689050", "name": "Luk Yeung", "ascii_name": "Luk Yeung", "latitude": "22.37371", "longitude": "114.11917", "feature_class": "P", "feature_code": "PPL", "country_code": "HK", "admin1_code": "NTW", "population": 14154, "dem": 7, "timezone": "Asia/Hong_Kong", "modification_date": "2024-01-02", "country": "Hong Kong" }, "geometry": { "type": "Point", "coordinates": [ 114.11917, 22.37371 ] } },
{ "type": "Feature", "properties": { "geoname_id": "12689062", "name": "Sun Tin Wai", "ascii_name": "Sun Tin Wai", "latitude": "22.37058", "longitude": "114.18696", "feature_class": "P", "feature_code": "PPL", "country_code": "HK", "admin1_code": "NST", "population": 16628, "dem": 34, "timezone": "Asia/Hong_Kong", "modification_date": "2024-01-02", "country": "Hong Kong" }, "geometry": { "type": "Point", "coordinates": [ 114.18696, 22.37058 ] } },
{ "type": "Feature", "properties": { "geoname_id": "12719607", "name": "Healthy Gardens", "ascii_name": "Healthy Gardens", "latitude": "22.29153", "longitude": "114.20387", "feature_class": "P", "feature_code": "PPL", "country_code": "HK", "admin1_code": "HEA", "population": 2532, "dem": 141, "timezone": "Asia/Hong_Kong", "modification_date": "2024-01-30", "country": "Hong Kong" }, "geometry": { "type": "Point", "coordinates": [ 114.20387, 22.29153 ] } },
{ "type": "Feature", "properties": { "geoname_id": "12719616", "name": "Oi Tung Estate", "ascii_name": "Oi Tung Estate", "latitude": "22.28173", "longitude": "114.22786", "feature_class": "P", "feature_code": "PPL", "country_code": "HK", "admin1_code": "HEA", "population": 9128, "dem": -9999, "timezone": "Asia/Hong_Kong", "modification_date": "2024-01-30", "country": "Hong Kong" }, "geometry": { "type": "Point", "coordinates": [ 114.22786, 22.28173 ] } },
{ "type": "Feature", "properties": { "geoname_id": "12719793", "name": "Wah Kwai Estate", "ascii_name": "Wah Kwai Estate", "latitude": "22.25044", "longitude": "114.13964", "feature_class": "P", "feature_code": "PPL", "country_code": "HK", "admin1_code": "HSO", "population": 9321, "dem": 51, "timezone": "Asia/Hong_Kong", "modification_date": "2024-02-01", "country": "Hong Kong" }, "geometry": { "type": "Point", "coordinates": [ 114.13964, 22.25044 ] } },
{ "type": "Feature", "properties": { "geoname_id": "12719805", "name": "Park Avenue", "ascii_name": "Park Avenue", "latitude": "22.3163", "longitude": "114.16295", "feature_class": "P", "feature_code": "PPL", "country_code": "HK", "admin1_code": "KYT", "population": 4651, "dem": 1, "timezone": "Asia/Hong_Kong", "modification_date": "2024-02-01", "country": "Hong Kong" }, "geometry": { "type": "Point", "coordinates": [ 114.16295, 22.3163 ] } },
{ "type": "Feature", "properties": { "geoname_id": "12719847", "name": "Oi Man Estate", "ascii_name": "Oi Man Estate", "latitude": "22.31197", "longitude": "114.17853", "feature_class": "P", "feature_code": "PPL", "country_code": "HK", "admin1_code": "KKC", "population": 17407, "dem": 33, "timezone": "Asia/Hong_Kong", "modification_date": "2024-02-01", "country": "Hong Kong" }, "geometry": { "type": "Point", "coordinates": [ 114.17853, 22.31197 ] } },
{ "type": "Feature", "properties": { "geoname_id": "12746528", "name": "Galaxia", "ascii_name": "Galaxia", "latitude": "22.34121", "longitude": "114.20218", "feature_class": "P", "feature_code": "PPL", "country_code": "HK", "admin1_code": "KWT", "population": 5964, "dem": 9, "timezone": "Asia/Hong_Kong", "modification_date": "2024-02-19", "country": "Hong Kong" }, "geometry": { "type": "Point", "coordinates": [ 114.20218, 22.34121 ] } },
{ "type": "Feature", "properties": { "geoname_id": "12746533", "name": "Choi Fai Estate", "ascii_name": "Choi Fai Estate", "latitude": "22.33539", "longitude": "114.21811", "feature_class": "P", "feature_code": "PPL", "country_code": "HK", "admin1_code": "KWT", "population": 3923, "dem": 214, "timezone": "Asia/Hong_Kong", "modification_date": "2024-02-19", "country": "Hong Kong" }, "geometry": { "type": "Point", "coordinates": [ 114.21811, 22.33539 ] } },
{ "type": "Feature", "properties": { "geoname_id": "1819142", "name": "Pak Shek Kok", "ascii_name": "Pak Shek Kok", "alternate_names": [ "Baishijiao", "Pak Shek Kok", "bai shi jiao", "白石角" ], "latitude": "22.42734", "longitude": "114.20366", "feature_class": "P", "feature_code": "PPL", "country_code": "HK", "admin1_code": "NST", "population": 12000, "dem": 3, "timezone": "Asia/Hong_Kong", "modification_date": "2023-12-05", "country": "Hong Kong" }, "geometry": { "type": "Point", "coordinates": [ 114.20366, 22.42734 ] } },
{ "type": "Feature", "properties": { "geoname_id": "1819283", "name": "San Tung Chung Hang", "ascii_name": "San Tung Chung Hang", "alternate_names": [ "New Tung Chung Hang", "Old Tung Chung Hang", "San Tung Chung Hang", "Tung Chung", "Tung Chung Hang", "Xindongchongkeng", "xin dong yong keng", "新东涌坑", "新東涌坑" ], "latitude": "22.27875", "longitude": "113.94307", "feature_class": "P", "feature_code": "PPL", "country_code": "HK", "admin1_code": "NIS", "population": 116000, "dem": 33, "timezone": "Asia/Hong_Kong", "modification_date": "2023-11-28", "country": "Hong Kong" }, "geometry": { "type": "Point", "coordinates": [ 113.94307, 22.27875 ] } },
{ "type": "Feature", "properties": { "geoname_id": "12719552", "name": "Un Chau Estate", "ascii_name": "Un Chau Estate", "latitude": "22.33633", "longitude": "114.15616", "feature_class": "P", "feature_code": "PPL", "country_code": "HK", "admin1_code": "KSS", "population": 18670, "dem": 1, "timezone": "Asia/Hong_Kong", "modification_date": "2024-01-30", "country": "Hong Kong" }, "geometry": { "type": "Point", "coordinates": [ 114.15616, 22.33633 ] } },
{ "type": "Feature", "properties": { "geoname_id": "12719561", "name": "Banyan Garden", "ascii_name": "Banyan Garden", "latitude": "22.3346", "longitude": "114.14797", "feature_class": "P", "feature_code": "PPL", "country_code": "HK", "admin1_code": "KSS", "population": 6515, "dem": 2, "timezone": "Asia/Hong_Kong", "modification_date": "2024-01-30", "country": "Hong Kong" }, "geometry": { "type": "Point", "coordinates": [ 114.14797, 22.3346 ] } },
{ "type": "Feature", "properties": { "geoname_id": "12719789", "name": "South Wave Court", "ascii_name": "South Wave Court", "latitude": "22.24463", "longitude": "114.16623", "feature_class": "P", "feature_code": "PPL", "country_code": "HK", "admin1_code": "HSO", "population": 2939, "dem": 1, "timezone": "Asia/Hong_Kong", "modification_date": "2024-02-01", "country": "Hong Kong" }, "geometry": { "type": "Point", "coordinates": [ 114.16623, 22.24463 ] } },
{ "type": "Feature", "properties": { "geoname_id": "12719804", "name": "The Central Park", "ascii_name": "The Central Park", "latitude": "22.31715", "longitude": "114.16182", "feature_class": "P", "feature_code": "PPL", "country_code": "HK", "admin1_code": "KYT", "population": 3873, "dem": 1, "timezone": "Asia/Hong_Kong", "modification_date": "2024-02-01", "country": "Hong Kong" }, "geometry": { "type": "Point", "coordinates": [ 114.16182, 22.31715 ] } },
{ "type": "Feature", "properties": { "geoname_id": "12719822", "name": "Ho Man Tin Estate", "ascii_name": "Ho Man Tin Estate", "latitude": "22.3149", "longitude": "114.18252", "feature_class": "P", "feature_code": "PPL", "country_code": "HK", "admin1_code": "KKC", "population": 12329, "dem": 33, "timezone": "Asia/Hong_Kong", "modification_date": "2024-02-01", "country": "Hong Kong" }, "geometry": { "type": "Point", "coordinates": [ 114.18252, 22.3149 ] } },
{ "type": "Feature", "properties": { "geoname_id": "12746534", "name": "Kai Tak Garden", "ascii_name": "Kai Tak Garden", "latitude": "22.3378", "longitude": "114.19461", "feature_class": "P", "feature_code": "PPL", "country_code": "HK", "admin1_code": "KWT", "population": 3928, "dem": 10, "timezone": "Asia/Hong_Kong", "modification_date": "2024-02-19", "country": "Hong Kong" }, "geometry": { "type": "Point", "coordinates": [ 114.19461, 22.3378 ] } },
{ "type": "Feature", "properties": { "geoname_id": "1818770", "name": "So Kwun Wat Tsuen", "ascii_name": "So Kwun Wat Tsuen", "alternate_names": [ "Saoguanhucun", "So Kwun Wat San Tsuen", "So Kwun Wat Tsuen", "sao guan hu cun", "扫管笏村", "掃管笏村" ], "latitude": "22.3849", "longitude": "114.00448", "feature_class": "P", "feature_code": "PPL", "country_code": "HK", "admin1_code": "NTM", "population": 5172, "dem": 274, "timezone": "Asia/Hong_Kong", "modification_date": "2023-12-12", "country": "Hong Kong" }, "geometry": { "type": "Point", "coordinates": [ 114.00448, 22.3849 ] } },
{ "type": "Feature", "properties": { "geoname_id": "1819554", "name": "Lam Tin", "ascii_name": "Lam Tin", "alternate_names": [ "Lam Tin", "lan tian", "藍田" ], "latitude": "22.30933", "longitude": "114.23634", "feature_class": "P", "feature_code": "PPL", "country_code": "HK", "admin1_code": "KKT", "population": 18666, "dem": 87, "timezone": "Asia/Hong_Kong", "modification_date": "2023-12-05", "country": "Hong Kong" }, "geometry": { "type": "Point", "coordinates": [ 114.23634, 22.30933 ] } },
{ "type": "Feature", "properties": { "geoname_id": "1819791", "name": "Hang Hau", "ascii_name": "Hang Hau", "alternate_names": [ "Hang Hau", "Hang Hau Town", "Kengkou", "keng kou", "坑口" ], "latitude": "22.31811", "longitude": "114.26994", "feature_class": "P", "feature_code": "PPL", "country_code": "HK", "admin1_code": "NSK", "population": 36529, "dem": 14, "timezone": "Asia/Hong_Kong", "modification_date": "2023-12-05", "country": "Hong Kong" }, "geometry": { "type": "Point", "coordinates": [ 114.26994, 22.31811 ] } },
{ "type": "Feature", "properties": { "geoname_id": "1819932", "name": "Choi Hung", "ascii_name": "Choi Hung", "latitude": "22.33548", "longitude": "114.20638", "feature_class": "P", "feature_code": "PPLX", "country_code": "HK", "admin1_code": "KWT", "population": 14773, "dem": 13, "timezone": "Asia/Hong_Kong", "modification_date": "2024-01-02", "country": "Hong Kong" }, "geometry": { "type": "Point", "coordinates": [ 114.20638, 22.33548 ] } },
{ "type": "Feature", "properties": { "geoname_id": "12640694", "name": "Hung Shui Kiu", "ascii_name": "Hung Shui Kiu", "latitude": "22.43163", "longitude": "113.98815", "feature_class": "P", "feature_code": "PPLX", "country_code": "HK", "admin1_code": "NYL", "population": 11851, "dem": 10, "timezone": "Asia/Hong_Kong", "modification_date": "2023-12-05", "country": "Hong Kong" }, "geometry": { "type": "Point", "coordinates": [ 113.98815, 22.43163 ] } },
{ "type": "Feature", "properties": { "geoname_id": "12719622", "name": "Grand Promenade", "ascii_name": "Grand Promenade", "latitude": "22.28499", "longitude": "114.225", "feature_class": "P", "feature_code": "PPL", "country_code": "HK", "admin1_code": "HEA", "population": 4801, "dem": -9999, "timezone": "Asia/Hong_Kong", "modification_date": "2024-01-30", "country": "Hong Kong" }, "geometry": { "type": "Point", "coordinates": [ 114.225, 22.28499 ] } },
{ "type": "Feature", "properties": { "geoname_id": "12719785", "name": "Tin Wan Estate", "ascii_name": "Tin Wan Estate", "latitude": "22.25073", "longitude": "114.1487", "feature_class": "P", "feature_code": "PPL", "country_code": "HK", "admin1_code": "HSO", "population": 8491, "dem": 139, "timezone": "Asia/Hong_Kong", "modification_date": "2024-02-01", "country": "Hong Kong" }, "geometry": { "type": "Point", "coordinates": [ 114.1487, 22.25073 ] } },
{ "type": "Feature", "properties": { "geoname_id": "12719794", "name": "Broadview Court", "ascii_name": "Broadview Court", "latitude": "22.24269", "longitude": "114.16566", "feature_class": "P", "feature_code": "PPL", "country_code": "HK", "admin1_code": "HSO", "population": 4087, "dem": 1, "timezone": "Asia/Hong_Kong", "modification_date": "2024-02-01", "country": "Hong Kong" }, "geometry": { "type": "Point", "coordinates": [ 114.16566, 22.24269 ] } },
{ "type": "Feature", "properties": { "geoname_id": "12719815", "name": "Prosperous Garden", "ascii_name": "Prosperous Garden", "latitude": "22.31009", "longitude": "114.16829", "feature_class": "P", "feature_code": "PPL", "country_code": "HK", "admin1_code": "KYT", "population": 4090, "dem": 11, "timezone": "Asia/Hong_Kong", "modification_date": "2024-02-01", "country": "Hong Kong" }, "geometry": { "type": "Point", "coordinates": [ 114.16829, 22.31009 ] } },
{ "type": "Feature", "properties": { "geoname_id": "12719848", "name": "Tak Long Estate", "ascii_name": "Tak Long Estate", "latitude": "22.3302", "longitude": "114.20338", "feature_class": "P", "feature_code": "PPL", "country_code": "HK", "admin1_code": "KKC", "population": 18720, "dem": 3, "timezone": "Asia/Hong_Kong", "modification_date": "2024-02-01", "country": "Hong Kong" }, "geometry": { "type": "Point", "coordinates": [ 114.20338, 22.3302 ] } },
{ "type": "Feature", "properties": { "geoname_id": "12746544", "name": "Tsui Chuk Garden", "ascii_name": "Tsui Chuk Garden", "latitude": "22.34639", "longitude": "114.18766", "feature_class": "P", "feature_code": "PPL", "country_code": "HK", "admin1_code": "KWT", "population": 10071, "dem": 79, "timezone": "Asia/Hong_Kong", "modification_date": "2024-02-19", "country": "Hong Kong" }, "geometry": { "type": "Point", "coordinates": [ 114.18766, 22.34639 ] } },
{ "type": "Feature", "properties": { "geoname_id": "1818558", "name": "Tin Shui Wai", "ascii_name": "Tin Shui Wai", "alternate_names": [ "Tianshui Wei", "Tin Shui Wai", "tian shui tong", "tian shui wei", "tyn shwy way", "تین شوی وای", "天水囲", "天水围", "天水圍" ], "latitude": "22.45679", "longitude": "114.00234", "feature_class": "P", "feature_code": "PPL", "country_code": "HK", "admin1_code": "NYL", "population": 282400, "dem": 10, "timezone": "Asia/Hong_Kong", "modification_date": "2022-06-08", "country": "Hong Kong" }, "geometry": { "type": "Point", "coordinates": [ 114.00234, 22.45679 ] } },
{ "type": "Feature", "properties": { "geoname_id": "1819361", "name": "Mid Levels", "ascii_name": "Mid Levels", "alternate_names": [ "Mid-levels" ], "latitude": "22.28399", "longitude": "114.14958", "feature_class": "P", "feature_code": "PPLX", "country_code": "HK", "admin1_code": "HCW", "population": 15464, "dem": 50, "timezone": "Asia/Hong_Kong", "modification_date": "2024-01-02", "country": "Hong Kong" }, "geometry": { "type": "Point", "coordinates": [ 114.14958, 22.28399 ] } },
{ "type": "Feature", "properties": { "geoname_id": "1819783", "name": "Happy Valley", "ascii_name": "Happy Valley", "alternate_names": [ "Happy Valley", "K'uai-huo Ku", "K’uai-huo Ku", "Wong Nai Phong Valley", "pao ma de", "跑馬地", "跑马地" ], "latitude": "22.26912", "longitude": "114.18619", "feature_class": "P", "feature_code": "PPLX", "country_code": "HK", "admin1_code": "HWC", "population": 13248, "dem": 49, "timezone": "Asia/Hong_Kong", "modification_date": "2023-12-15", "country": "Hong Kong" }, "geometry": { "type": "Point", "coordinates": [ 114.18619, 22.26912 ] } },
{ "type": "Feature", "properties": { "geoname_id": "1819923", "name": "Chuk Yuen", "ascii_name": "Chuk Yuen", "alternate_names": [ "Chuk Un", "Chuk Yuen", "Zhuyuan", "zhu yuan", "竹园", "竹園" ], "latitude": "22.34544", "longitude": "114.19327", "feature_class": "P", "feature_code": "PPLX", "country_code": "HK", "admin1_code": "KWT", "population": 28645, "dem": 88, "timezone": "Asia/Hong_Kong", "modification_date": "2023-12-05", "country": "Hong Kong" }, "geometry": { "type": "Point", "coordinates": [ 114.19327, 22.34544 ] } },
{ "type": "Feature", "properties": { "geoname_id": "12687143", "name": "Shui Chuen O", "ascii_name": "Shui Chuen O", "latitude": "22.37161", "longitude": "114.19778", "feature_class": "P", "feature_code": "PPL", "country_code": "HK", "admin1_code": "NST", "population": 19719, "dem": 127, "timezone": "Asia/Hong_Kong", "modification_date": "2023-12-19", "country": "Hong Kong" }, "geometry": { "type": "Point", "coordinates": [ 114.19778, 22.37161 ] } },
{ "type": "Feature", "properties": { "geoname_id": "12719541", "name": "Wah Kwai", "ascii_name": "Wah Kwai", "latitude": "22.25097", "longitude": "114.14005", "feature_class": "P", "feature_code": "PPL", "country_code": "HK", "admin1_code": "HSO", "population": 13309, "dem": 51, "timezone": "Asia/Hong_Kong", "modification_date": "2024-01-30", "country": "Hong Kong" }, "geometry": { "type": "Point", "coordinates": [ 114.14005, 22.25097 ] } },
{ "type": "Feature", "properties": { "geoname_id": "12719556", "name": "The Pacifica", "ascii_name": "The Pacifica", "latitude": "22.33448", "longitude": "114.14988", "feature_class": "P", "feature_code": "PPLX", "country_code": "HK", "admin1_code": "KSS", "population": 5604, "dem": 2, "timezone": "Asia/Hong_Kong", "modification_date": "2024-01-30", "country": "Hong Kong" }, "geometry": { "type": "Point", "coordinates": [ 114.14988, 22.33448 ] } },
{ "type": "Feature", "properties": { "geoname_id": "12719565", "name": "Nam Cheong Estate", "ascii_name": "Nam Cheong Estate", "latitude": "22.32593", "longitude": "114.15744", "feature_class": "P", "feature_code": "PPL", "country_code": "HK", "admin1_code": "KSS", "population": 4684, "dem": 1, "timezone": "Asia/Hong_Kong", "modification_date": "2024-01-30", "country": "Hong Kong" }, "geometry": { "type": "Point", "coordinates": [ 114.15744, 22.32593 ] } },
{ "type": "Feature", "properties": { "geoname_id": "12719567", "name": "Hoi Ying Estate", "ascii_name": "Hoi Ying Estate", "latitude": "22.32853", "longitude": "114.14825", "feature_class": "P", "feature_code": "PPL", "country_code": "HK", "admin1_code": "KSS", "population": 3444, "dem": 1, "timezone": "Asia/Hong_Kong", "modification_date": "2024-01-30", "country": "Hong Kong" }, "geometry": { "type": "Point", "coordinates": [ 114.14825, 22.32853 ] } },
{ "type": "Feature", "properties": { "geoname_id": "12719576", "name": "Aqua Marine", "ascii_name": "Aqua Marine", "latitude": "22.33258", "longitude": "114.14867", "feature_class": "P", "feature_code": "PPL", "country_code": "HK", "admin1_code": "KSS", "population": 4367, "dem": 1, "timezone": "Asia/Hong_Kong", "modification_date": "2024-01-30", "country": "Hong Kong" }, "geometry": { "type": "Point", "coordinates": [ 114.14867, 22.33258 ] } },
{ "type": "Feature", "properties": { "geoname_id": "12719580", "name": "Lai Kok Estate", "ascii_name": "Lai Kok Estate", "latitude": "22.33227", "longitude": "114.15691", "feature_class": "P", "feature_code": "PPL", "country_code": "HK", "admin1_code": "KSS", "population": 6200, "dem": 1, "timezone": "Asia/Hong_Kong", "modification_date": "2024-01-30", "country": "Hong Kong" }, "geometry": { "type": "Point", "coordinates": [ 114.15691, 22.33227 ] } },
{ "type": "Feature", "properties": { "geoname_id": "12719596", "name": "Ming Wah Dai Ha", "ascii_name": "Ming Wah Dai Ha", "latitude": "22.27778", "longitude": "114.23108", "feature_class": "P", "feature_code": "PPL", "country_code": "HK", "admin1_code": "HEA", "population": 5299, "dem": -9999, "timezone": "Asia/Hong_Kong", "modification_date": "2024-01-30", "country": "Hong Kong" }, "geometry": { "type": "Point", "coordinates": [ 114.23108, 22.27778 ] } },
{ "type": "Feature", "properties": { "geoname_id": "12719634", "name": "Lei King Wan", "ascii_name": "Lei King Wan", "latitude": "22.28389", "longitude": "114.22328", "feature_class": "P", "feature_code": "PPL", "country_code": "HK", "admin1_code": "HEA", "population": 6389, "dem": -9999, "timezone": "Asia/Hong_Kong", "modification_date": "2024-01-30", "country": "Hong Kong" }, "geometry": { "type": "Point", "coordinates": [ 114.22328, 22.28389 ] } },
{ "type": "Feature", "properties": { "geoname_id": "12719849", "name": "Lok Man Sun Chuen", "ascii_name": "Lok Man Sun Chuen", "latitude": "22.3163", "longitude": "114.18616", "feature_class": "P", "feature_code": "PPL", "country_code": "HK", "admin1_code": "KKC", "population": 8696, "dem": 16, "timezone": "Asia/Hong_Kong", "modification_date": "2024-02-01", "country": "Hong Kong" }, "geometry": { "type": "Point", "coordinates": [ 114.18616, 22.3163 ] } },
{ "type": "Feature", "properties": { "geoname_id": "1818209", "name": "Tsuen Wan", "ascii_name": "Tsuen Wan", "alternate_names": [ "Ch'uan-wan", "Ch’üan-wan", "Tsuen Wan", "Tsun Wan", "Tsun Wan Wai", "quan wan", "荃灣" ], "latitude": "22.37137", "longitude": "114.11329", "feature_class": "P", "feature_code": "PPLA", "country_code": "HK", "admin1_code": "NTW", "population": 318916, "dem": 1, "timezone": "Asia/Hong_Kong", "modification_date": "2023-12-15", "country": "Hong Kong" }, "geometry": { "type": "Point", "coordinates": [ 114.11329, 22.37137 ] } },
{ "type": "Feature", "properties": { "geoname_id": "1818225", "name": "Yuen Long", "ascii_name": "Yuen Long", "alternate_names": [ "Un Long", "Un long hui", "Yuan-lang-hsu", "Yuan-lang-hsü", "Yuanlang", "Yuanlang Xu", "Yuen Long", "Yuen Long Old Town", "Yuen long kou hui", "yuan lang", "yuan lang xu", "元朗", "元朗墟" ], "latitude": "22.44518", "longitude": "114.02621", "feature_class": "P", "feature_code": "PPLA", "country_code": "HK", "admin1_code": "NYL", "population": 200000, "dem": 21, "timezone": "Asia/Hong_Kong", "modification_date": "2024-02-11", "country": "Hong Kong" }, "geometry": { "type": "Point", "coordinates": [ 114.02621, 22.44518 ] } },
{ "type": "Feature", "properties": { "geoname_id": "1818544", "name": "To Kwa Wan", "ascii_name": "To Kwa Wan", "alternate_names": [ "Tok Wah Wan", "tu gua wan", "土瓜灣" ], "latitude": "22.31693", "longitude": "114.19052", "feature_class": "P", "feature_code": "PPLX", "country_code": "HK", "admin1_code": "KKC", "population": 15646, "dem": 24, "timezone": "Asia/Hong_Kong", "modification_date": "2023-11-28", "country": "Hong Kong" }, "geometry": { "type": "Point", "coordinates": [ 114.19052, 22.31693 ] } },
{ "type": "Feature", "properties": { "geoname_id": "1818557", "name": "Tin Wan", "ascii_name": "Tin Wan", "alternate_names": [ "Tin Wan", "tian wan", "田湾", "田灣" ], "latitude": "22.25113", "longitude": "114.14726", "feature_class": "P", "feature_code": "PPLX", "country_code": "HK", "admin1_code": "HSO", "population": 16811, "dem": 46, "timezone": "Asia/Hong_Kong", "modification_date": "2024-02-01", "country": "Hong Kong" }, "geometry": { "type": "Point", "coordinates": [ 114.14726, 22.25113 ] } },
{ "type": "Feature", "properties": { "geoname_id": "1818614", "name": "Tai Wo Hau", "ascii_name": "Tai Wo Hau", "alternate_names": [ "Dawokoucun", "Tai Wo Hau", "Tai Wo Hau Estate", "Tai Wo Hau Resettlement Area", "da wo kou", "da wo kou cun", "大窝口", "大窝口村", "大窩口", "大窩口邨" ], "latitude": "22.36718", "longitude": "114.12347", "feature_class": "P", "feature_code": "PPL", "country_code": "HK", "admin1_code": "NKT", "population": 20848, "dem": 38, "timezone": "Asia/Hong_Kong", "modification_date": "2024-01-02", "country": "Hong Kong" }, "geometry": { "type": "Point", "coordinates": [ 114.12347, 22.36718 ] } },
{ "type": "Feature", "properties": { "geoname_id": "1819374", "name": "Ma Wan", "ascii_name": "Ma Wan", "alternate_names": [ "Ma Wan", "Mawan", "ma wan", "馬灣", "马湾" ], "latitude": "22.3523", "longitude": "114.06002", "feature_class": "P", "feature_code": "PPL", "country_code": "HK", "admin1_code": "NIS", "population": 14409, "dem": -9999, "timezone": "Asia/Hong_Kong", "modification_date": "2024-01-29", "country": "Hong Kong" }, "geometry": { "type": "Point", "coordinates": [ 114.06002, 22.3523 ] } },
{ "type": "Feature", "properties": { "geoname_id": "8223932", "name": "Central", "ascii_name": "Central", "alternate_names": [ "Central", "Central'nyj", "Centralo", "Chung Wan", "City of Victoria", "Victoria", "Victoria City", "jjung-wan", "maiyam", "sntral", "sntrl", "zhong huan", "Центральный", "סנטרל", "سنترال", "மையம்", "中環", "쭝완" ], "latitude": "22.28299", "longitude": "114.15846", "feature_class": "P", "feature_code": "PPLA", "country_code": "HK", "admin1_code": "HCW", "population": 11077, "dem": 29, "timezone": "Asia/Hong_Kong", "modification_date": "2023-12-11", "country": "Hong Kong" }, "geometry": { "type": "Point", "coordinates": [ 114.15846, 22.28299 ] } },
{ "type": "Feature", "properties": { "geoname_id": "8504415", "name": "Kowloon Bay", "ascii_name": "Kowloon Bay", "alternate_names": [ "Kowloon Bay", "jiu long wan", "九龍灣", "九龙湾" ], "latitude": "22.32662", "longitude": "114.20777", "feature_class": "P", "feature_code": "PPL", "country_code": "HK", "admin1_code": "KKT", "population": 13200, "dem": 6, "timezone": "Asia/Hong_Kong", "modification_date": "2023-12-13", "country": "Hong Kong" }, "geometry": { "type": "Point", "coordinates": [ 114.20777, 22.32662 ] } },
{ "type": "Feature", "properties": { "geoname_id": "12719439", "name": "Hok Yuen", "ascii_name": "Hok Yuen", "latitude": "22.31027", "longitude": "114.18816", "feature_class": "P", "feature_code": "PPLX", "country_code": "HK", "admin1_code": "KKC", "population": 18091, "dem": 16, "timezone": "Asia/Hong_Kong", "modification_date": "2024-01-29", "country": "Hong Kong" }, "geometry": { "type": "Point", "coordinates": [ 114.18816, 22.31027 ] } },
{ "type": "Feature", "properties": { "geoname_id": "12719543", "name": "Kornhill", "ascii_name": "Kornhill", "latitude": "22.28213", "longitude": "114.21566", "feature_class": "P", "feature_code": "PPL", "country_code": "HK", "admin1_code": "HEA", "population": 13083, "dem": 118, "timezone": "Asia/Hong_Kong", "modification_date": "2024-01-30", "country": "Hong Kong" }, "geometry": { "type": "Point", "coordinates": [ 114.21566, 22.28213 ] } },
{ "type": "Feature", "properties": { "geoname_id": "12719568", "name": "Hoi Tat Estate", "ascii_name": "Hoi Tat Estate", "latitude": "22.33017", "longitude": "114.14946", "feature_class": "P", "feature_code": "PPL", "country_code": "HK", "admin1_code": "KSS", "population": 3415, "dem": 1, "timezone": "Asia/Hong_Kong", "modification_date": "2024-01-30", "country": "Hong Kong" }, "geometry": { "type": "Point", "coordinates": [ 114.14946, 22.33017 ] } },
{ "type": "Feature", "properties": { "geoname_id": "12719598", "name": "Tung Yuk Court", "ascii_name": "Tung Yuk Court", "latitude": "22.2824", "longitude": "114.22681", "feature_class": "P", "feature_code": "PPL", "country_code": "HK", "admin1_code": "HEA", "population": 5052, "dem": -9999, "timezone": "Asia/Hong_Kong", "modification_date": "2024-01-30", "country": "Hong Kong" }, "geometry": { "type": "Point", "coordinates": [ 114.22681, 22.2824 ] } },
{ "type": "Feature", "properties": { "geoname_id": "12719795", "name": "Chi Fu Fa Yuen", "ascii_name": "Chi Fu Fa Yuen", "latitude": "22.25582", "longitude": "114.13928", "feature_class": "P", "feature_code": "PPL", "country_code": "HK", "admin1_code": "HSO", "population": 9813, "dem": 51, "timezone": "Asia/Hong_Kong", "modification_date": "2024-02-01", "country": "Hong Kong" }, "geometry": { "type": "Point", "coordinates": [ 114.13928, 22.25582 ] } },
{ "type": "Feature", "properties": { "geoname_id": "12719810", "name": "Metro Harbour", "ascii_name": "Metro Harbour", "latitude": "22.32447", "longitude": "114.16028", "feature_class": "P", "feature_code": "PPL", "country_code": "HK", "admin1_code": "KYT", "population": 7887, "dem": 1, "timezone": "Asia/Hong_Kong", "modification_date": "2024-02-01", "country": "Hong Kong" }, "geometry": { "type": "Point", "coordinates": [ 114.16028, 22.32447 ] } },
{ "type": "Feature", "properties": { "geoname_id": "12719827", "name": "Mei King Mansion", "ascii_name": "Mei King Mansion", "latitude": "22.31606", "longitude": "114.19047", "feature_class": "P", "feature_code": "PPL", "country_code": "HK", "admin1_code": "KKC", "population": 3421, "dem": 16, "timezone": "Asia/Hong_Kong", "modification_date": "2024-02-01", "country": "Hong Kong" }, "geometry": { "type": "Point", "coordinates": [ 114.19047, 22.31606 ] } },
{ "type": "Feature", "properties": { "geoname_id": "12746524", "name": "Tung Tau Estate", "ascii_name": "Tung Tau Estate", "latitude": "22.33212", "longitude": "114.19277", "feature_class": "P", "feature_code": "PPL", "country_code": "HK", "admin1_code": "KWT", "population": 15440, "dem": 4, "timezone": "Asia/Hong_Kong", "modification_date": "2024-02-19", "country": "Hong Kong" }, "geometry": { "type": "Point", "coordinates": [ 114.19277, 22.33212 ] } },
{ "type": "Feature", "properties": { "geoname_id": "1818501", "name": "Tsim Sha Tsui", "ascii_name": "Tsim Sha Tsui", "alternate_names": [ "Chimsachjoj", "Cimsacuj", "Cimŝacuj", "Tiem Sa Chuy", "Tiêm Sa Chủy", "Tsim Sa Tsoui", "Tsim Sha Tsui", "Tsimshatsui", "cim ca cuyi", "cim sa cuy", "jian sha ju", "jian sha zui", "jimsajeoi", "tsym sha tswy", "Τσιμ Σα Τσούι", "Чимсачёй", "צים שא צוי", "تسيم شا تسوي", "تسیم شا تسوی", "சிம் சா சுயி", "จิมซาจุ่ย", "尖沙咀", "尖沙嘴", "짐사저이" ], "latitude": "22.3", "longitude": "114.16667", "feature_class": "P", "feature_code": "PPL", "country_code": "HK", "admin1_code": "KKC", "population": 24557, "dem": 0, "timezone": "Asia/Hong_Kong", "modification_date": "2023-12-05", "country": "Hong Kong" }, "geometry": { "type": "Point", "coordinates": [ 114.16667, 22.3 ] } },
{ "type": "Feature", "properties": { "geoname_id": "1818905", "name": "Shek Kip Mei", "ascii_name": "Shek Kip Mei", "alternate_names": [ "Shek Kip Mei", "Shek Kip Mi Resettlement Area", "Shek Kip Mi Village", "Shep Kip Mei", "shi xia wei", "石硤尾" ], "latitude": "22.33146", "longitude": "114.16799", "feature_class": "P", "feature_code": "PPLX", "country_code": "HK", "admin1_code": "KSS", "population": 18078, "dem": 19, "timezone": "Asia/Hong_Kong", "modification_date": "2023-12-05", "country": "Hong Kong" }, "geometry": { "type": "Point", "coordinates": [ 114.16799, 22.33146 ] } },
{ "type": "Feature", "properties": { "geoname_id": "1818972", "name": "Sau Mau Ping", "ascii_name": "Sau Mau Ping", "alternate_names": [ "Sau Mau Ping", "Xiumaoping", "xiu mao ping", "秀茂坪" ], "latitude": "22.3202", "longitude": "114.23497", "feature_class": "P", "feature_code": "PPLX", "country_code": "HK", "admin1_code": "KKT", "population": 54218, "dem": 161, "timezone": "Asia/Hong_Kong", "modification_date": "2023-12-05", "country": "Hong Kong" }, "geometry": { "type": "Point", "coordinates": [ 114.23497, 22.3202 ] } },
{ "type": "Feature", "properties": { "geoname_id": "1819535", "name": "Lau Fau Shan", "ascii_name": "Lau Fau Shan", "alternate_names": [ "Lau Fau Sha", "Lau Fau Shan", "Liufushan", "liu fu shan", "流浮山" ], "latitude": "22.28328", "longitude": "113.93416", "feature_class": "P", "feature_code": "PPL", "country_code": "HK", "admin1_code": "NIS", "population": 2230, "dem": 0, "timezone": "Asia/Hong_Kong", "modification_date": "2023-12-11", "country": "Hong Kong" }, "geometry": { "type": "Point", "coordinates": [ 113.93416, 22.28328 ] } },
{ "type": "Feature", "properties": { "geoname_id": "12640693", "name": "Lei Tung", "ascii_name": "Lei Tung", "alternate_names": [ "li dong", "利東" ], "latitude": "22.24052", "longitude": "114.15757", "feature_class": "P", "feature_code": "PPLX", "country_code": "HK", "admin1_code": "HSO", "population": 26350, "dem": 1, "timezone": "Asia/Hong_Kong", "modification_date": "2023-12-05", "country": "Hong Kong" }, "geometry": { "type": "Point", "coordinates": [ 114.15757, 22.24052 ] } },
{ "type": "Feature", "properties": { "geoname_id": "12719547", "name": "Keng Hau", "ascii_name": "Keng Hau", "latitude": "22.36507", "longitude": "114.17472", "feature_class": "P", "feature_code": "PPL", "country_code": "HK", "admin1_code": "NST", "population": 18707, "dem": 28, "timezone": "Asia/Hong_Kong", "modification_date": "2024-01-30", "country": "Hong Kong" }, "geometry": { "type": "Point", "coordinates": [ 114.17472, 22.36507 ] } },
{ "type": "Feature", "properties": { "geoname_id": "12719830", "name": "Laguna Verde (Estate)", "ascii_name": "Laguna Verde (Estate)", "latitude": "22.30767", "longitude": "114.19288", "feature_class": "P", "feature_code": "PPL", "country_code": "HK", "admin1_code": "KKC", "population": 12664, "dem": -9999, "timezone": "Asia/Hong_Kong", "modification_date": "2024-02-01", "country": "Hong Kong" }, "geometry": { "type": "Point", "coordinates": [ 114.19288, 22.30767 ] } },
{ "type": "Feature", "properties": { "geoname_id": "12719833", "name": "I-feng Mansion", "ascii_name": "I-feng Mansion", "latitude": "22.31541", "longitude": "114.1892", "feature_class": "P", "feature_code": "PPL", "country_code": "HK", "admin1_code": "KKC", "population": 3246, "dem": 16, "timezone": "Asia/Hong_Kong", "modification_date": "2024-02-01", "country": "Hong Kong" }, "geometry": { "type": "Point", "coordinates": [ 114.1892, 22.31541 ] } },
{ "type": "Feature", "properties": { "geoname_id": "1818992", "name": "San Tin", "ascii_name": "San Tin", "alternate_names": [ "San Tin", "San Tin Wai", "Xintian", "xin tian", "新田" ], "latitude": "22.37193", "longitude": "114.18385", "feature_class": "P", "feature_code": "PPL", "country_code": "HK", "admin1_code": "NST", "population": 16628, "dem": 50, "timezone": "Asia/Hong_Kong", "modification_date": "2023-12-05", "country": "Hong Kong" }, "geometry": { "type": "Point", "coordinates": [ 114.18385, 22.37193 ] } },
{ "type": "Feature", "properties": { "geoname_id": "1819326", "name": "Nai Chung", "ascii_name": "Nai Chung", "alternate_names": [ "Nai Chung", "Niyong", "ni yong", "泥涌" ], "latitude": "22.43116", "longitude": "114.25753", "feature_class": "P", "feature_code": "PPL", "country_code": "HK", "admin1_code": "NST", "population": 5001, "dem": 9, "timezone": "Asia/Hong_Kong", "modification_date": "2023-12-05", "country": "Hong Kong" }, "geometry": { "type": "Point", "coordinates": [ 114.25753, 22.43116 ] } },
{ "type": "Feature", "properties": { "geoname_id": "1819333", "name": "Mui Wo Kau Tsuen", "ascii_name": "Mui Wo Kau Tsuen", "alternate_names": [ "Meiwo Jiucun", "Mui Wo", "Mui Wo Kau Tsuen", "Pak Ngau Heung", "mei wo", "mei wo jiu cun", "梅窝", "梅窝旧村", "梅窩", "梅窩舊村" ], "latitude": "22.26886", "longitude": "113.98609", "feature_class": "P", "feature_code": "PPL", "country_code": "HK", "admin1_code": "NIS", "population": 5485, "dem": 39, "timezone": "Asia/Hong_Kong", "modification_date": "2023-11-28", "country": "Hong Kong" }, "geometry": { "type": "Point", "coordinates": [ 113.98609, 22.26886 ] } },
{ "type": "Feature", "properties": { "geoname_id": "1819400", "name": "Ma On Shan", "ascii_name": "Ma On Shan", "alternate_names": [ "Ma On Shan", "Ma On Shan Tsuen", "Ma'an Shan", "Ma'an Shan Cun", "Ma’an Shan", "Ma’an Shan Cun", "ma an shan", "ma an shan cun", "馬鞍山", "馬鞍山村", "马鞍山", "马鞍山村" ], "latitude": "22.40613", "longitude": "114.24079", "feature_class": "P", "feature_code": "PPL", "country_code": "HK", "admin1_code": "NST", "population": 215200, "dem": 217, "timezone": "Asia/Hong_Kong", "modification_date": "2022-06-08", "country": "Hong Kong" }, "geometry": { "type": "Point", "coordinates": [ 114.24079, 22.40613 ] } },
{ "type": "Feature", "properties": { "geoname_id": "1819602", "name": "Kowloon Tong", "ascii_name": "Kowloon Tong", "alternate_names": [ "Jiulongtang", "Kau Lung Tong", "Kowloon Tong", "jiu long tang", "九龍塘", "九龙塘" ], "latitude": "22.33312", "longitude": "114.17969", "feature_class": "P", "feature_code": "PPLX", "country_code": "HK", "admin1_code": "KKC", "population": 18849, "dem": 18, "timezone": "Asia/Hong_Kong", "modification_date": "2023-12-05", "country": "Hong Kong" }, "geometry": { "type": "Point", "coordinates": [ 114.17969, 22.33312 ] } },
{ "type": "Feature", "properties": { "geoname_id": "1819855", "name": "Fo Tan", "ascii_name": "Fo Tan", "alternate_names": [ "Fo Tan", "Huotan", "huo tan", "Фо Тан", "火炭" ], "latitude": "22.39846", "longitude": "114.19293", "feature_class": "P", "feature_code": "PPL", "country_code": "HK", "admin1_code": "NST", "population": 22127, "dem": 42, "timezone": "Asia/Hong_Kong", "modification_date": "2023-12-05", "country": "Hong Kong" }, "geometry": { "type": "Point", "coordinates": [ 114.19293, 22.39846 ] } },
{ "type": "Feature", "properties": { "geoname_id": "1819894", "name": "Discovery Bay", "ascii_name": "Discovery Bay", "alternate_names": [ "Discovery Bay", "Yi-kin-van", "Yî-kín-vân", "diseukeobeoli bei", "yu jing wan", "ディスカバリー・ベイ", "愉景灣", "디스커버리 베이" ], "latitude": "22.3", "longitude": "114.01667", "feature_class": "P", "feature_code": "PPLL", "country_code": "HK", "admin1_code": "NIS", "population": 19336, "dem": 10, "timezone": "Asia/Hong_Kong", "modification_date": "2023-12-28", "country": "Hong Kong" }, "geometry": { "type": "Point", "coordinates": [ 114.01667, 22.3 ] } },
{ "type": "Feature", "properties": { "geoname_id": "12640674", "name": "So Uk", "ascii_name": "So Uk", "alternate_names": [ "su wu", "蘇屋" ], "latitude": "22.34131", "longitude": "114.15679", "feature_class": "P", "feature_code": "PPLX", "country_code": "HK", "admin1_code": "KSS", "population": 18956, "dem": 1, "timezone": "Asia/Hong_Kong", "modification_date": "2023-12-05", "country": "Hong Kong" }, "geometry": { "type": "Point", "coordinates": [ 114.15679, 22.34131 ] } },
{ "type": "Feature", "properties": { "geoname_id": "12719445", "name": "Kam Ying", "ascii_name": "Kam Ying", "latitude": "22.42285", "longitude": "114.23664", "feature_class": "P", "feature_code": "PPL", "country_code": "HK", "admin1_code": "NST", "population": 16691, "dem": 87, "timezone": "Asia/Hong_Kong", "modification_date": "2024-01-29", "country": "Hong Kong" }, "geometry": { "type": "Point", "coordinates": [ 114.23664, 22.42285 ] } },
{ "type": "Feature", "properties": { "geoname_id": "12719551", "name": "Tai Hang Estate (East & West)", "ascii_name": "Tai Hang Estate (East & West)", "latitude": "22.33209", "longitude": "114.17068", "feature_class": "P", "feature_code": "PPL", "country_code": "HK", "admin1_code": "KSS", "population": 7263, "dem": 11, "timezone": "Asia/Hong_Kong", "modification_date": "2024-01-30", "country": "Hong Kong" }, "geometry": { "type": "Point", "coordinates": [ 114.17068, 22.33209 ] } },
{ "type": "Feature", "properties": { "geoname_id": "12719608", "name": "Healthy Village", "ascii_name": "Healthy Village", "latitude": "22.29117", "longitude": "114.20624", "feature_class": "P", "feature_code": "PPL", "country_code": "HK", "admin1_code": "HEA", "population": 5278, "dem": 141, "timezone": "Asia/Hong_Kong", "modification_date": "2024-01-30", "country": "Hong Kong" }, "geometry": { "type": "Point", "coordinates": [ 114.20624, 22.29117 ] } },
{ "type": "Feature", "properties": { "geoname_id": "12719617", "name": "Aldrich Garden", "ascii_name": "Aldrich Garden", "latitude": "22.28082", "longitude": "114.22857", "feature_class": "P", "feature_code": "PPL", "country_code": "HK", "admin1_code": "HEA", "population": 8644, "dem": -9999, "timezone": "Asia/Hong_Kong", "modification_date": "2024-01-30", "country": "Hong Kong" }, "geometry": { "type": "Point", "coordinates": [ 114.22857, 22.28082 ] } },
{ "type": "Feature", "properties": { "geoname_id": "12719626", "name": "Lok Hin Terrace", "ascii_name": "Lok Hin Terrace", "latitude": "22.26424", "longitude": "114.2412", "feature_class": "P", "feature_code": "PPL", "country_code": "HK", "admin1_code": "HEA", "population": 4425, "dem": -9999, "timezone": "Asia/Hong_Kong", "modification_date": "2024-01-30", "country": "Hong Kong" }, "geometry": { "type": "Point", "coordinates": [ 114.2412, 22.26424 ] } },
{ "type": "Feature", "properties": { "geoname_id": "12719791", "name": "South Horizons (Estate)", "ascii_name": "South Horizons (Estate)", "latitude": "22.24411", "longitude": "114.14616", "feature_class": "P", "feature_code": "PPL", "country_code": "HK", "admin1_code": "HSO", "population": 29180, "dem": 1, "timezone": "Asia/Hong_Kong", "modification_date": "2024-02-01", "country": "Hong Kong" }, "geometry": { "type": "Point", "coordinates": [ 114.14616, 22.24411 ] } },
{ "type": "Feature", "properties": { "geoname_id": "12719792", "name": "Wah Fu Estate (I & II)", "ascii_name": "Wah Fu Estate (I & II)", "latitude": "22.2517", "longitude": "114.13645", "feature_class": "P", "feature_code": "PPL", "country_code": "HK", "admin1_code": "HSO", "population": 24897, "dem": 51, "timezone": "Asia/Hong_Kong", "modification_date": "2024-02-01", "country": "Hong Kong" }, "geometry": { "type": "Point", "coordinates": [ 114.13645, 22.2517 ] } },
{ "type": "Feature", "properties": { "geoname_id": "12719799", "name": "Yue Fai Court", "ascii_name": "Yue Fai Court", "latitude": "22.2498", "longitude": "114.15678", "feature_class": "P", "feature_code": "PPL", "country_code": "HK", "admin1_code": "HSO", "population": 3025, "dem": 3, "timezone": "Asia/Hong_Kong", "modification_date": "2024-02-01", "country": "Hong Kong" }, "geometry": { "type": "Point", "coordinates": [ 114.15678, 22.2498 ] } },
{ "type": "Feature", "properties": { "geoname_id": "12719824", "name": "Chun Man Court", "ascii_name": "Chun Man Court", "latitude": "22.31543", "longitude": "114.17927", "feature_class": "P", "feature_code": "PPL", "country_code": "HK", "admin1_code": "KKC", "population": 4929, "dem": 33, "timezone": "Asia/Hong_Kong", "modification_date": "2024-02-01", "country": "Hong Kong" }, "geometry": { "type": "Point", "coordinates": [ 114.17927, 22.31543 ] } },
{ "type": "Feature", "properties": { "geoname_id": "12746519", "name": "Grand View Garden", "ascii_name": "Grand View Garden", "latitude": "22.34132", "longitude": "114.20779", "feature_class": "P", "feature_code": "PPL", "country_code": "HK", "admin1_code": "KWT", "population": 6615, "dem": 9, "timezone": "Asia/Hong_Kong", "modification_date": "2024-02-19", "country": "Hong Kong" }, "geometry": { "type": "Point", "coordinates": [ 114.20779, 22.34132 ] } },
{ "type": "Feature", "properties": { "geoname_id": "1818573", "name": "Ting Kok", "ascii_name": "Ting Kok", "alternate_names": [ "Ting Kok", "Tingjiao", "ting jiao", "汀角" ], "latitude": "22.47285", "longitude": "114.21995", "feature_class": "P", "feature_code": "PPL", "country_code": "HK", "admin1_code": "NTP", "population": 2000, "dem": 15, "timezone": "Asia/Hong_Kong", "modification_date": "2023-12-05", "country": "Hong Kong" }, "geometry": { "type": "Point", "coordinates": [ 114.21995, 22.47285 ] } },
{ "type": "Feature", "properties": { "geoname_id": "1818695", "name": "Tai Mei Tuk", "ascii_name": "Tai Mei Tuk", "alternate_names": [ "Dameidu", "Tai Mei Tuk", "Tai Po Hoi Bun", "da bu hai bin", "da mei du", "大埔海滨", "大埔海濱", "大美督" ], "latitude": "22.47447", "longitude": "114.23458", "feature_class": "P", "feature_code": "PPL", "country_code": "HK", "admin1_code": "NTP", "population": 17544, "dem": 12, "timezone": "Asia/Hong_Kong", "modification_date": "2023-11-28", "country": "Hong Kong" }, "geometry": { "type": "Point", "coordinates": [ 114.23458, 22.47447 ] } },
{ "type": "Feature", "properties": { "geoname_id": "1819731", "name": "Ho Man Tin", "ascii_name": "Ho Man Tin", "alternate_names": [ "Hewentian", "Ho Man Tin", "he wen tian", "何文田" ], "latitude": "22.31584", "longitude": "114.18181", "feature_class": "P", "feature_code": "PPLX", "country_code": "HK", "admin1_code": "KKC", "population": 19830, "dem": 86, "timezone": "Asia/Hong_Kong", "modification_date": "2023-12-05", "country": "Hong Kong" }, "geometry": { "type": "Point", "coordinates": [ 114.18181, 22.31584 ] } },
{ "type": "Feature", "properties": { "geoname_id": "1819873", "name": "Fanling", "ascii_name": "Fanling", "alternate_names": [ "Fan Leng", "Fen-ling" ], "latitude": "22.49487", "longitude": "114.13949", "feature_class": "P", "feature_code": "PPL", "country_code": "HK", "admin1_code": "NNO", "population": 263200, "dem": 17, "timezone": "Asia/Hong_Kong", "modification_date": "2022-06-08", "country": "Hong Kong" }, "geometry": { "type": "Point", "coordinates": [ 114.13949, 22.49487 ] } },
{ "type": "Feature", "properties": { "geoname_id": "1819980", "name": "Chek Chue", "ascii_name": "Chek Chue", "alternate_names": [ "Chek Chue", "Chik Chu", "Chiktsui", "Port Stanley", "Stanley", "Stanley Village", "Stehnli", "chegchwi", "chi zhu", "Стэнли", "赤柱", "첵취" ], "latitude": "22.21849", "longitude": "114.21241", "feature_class": "P", "feature_code": "PPL", "country_code": "HK", "admin1_code": "HSO", "population": 20683, "dem": 12, "timezone": "Asia/Hong_Kong", "modification_date": "2023-11-29", "country": "Hong Kong" }, "geometry": { "type": "Point", "coordinates": [ 114.21241, 22.21849 ] } },