{
"type": "FeatureCollection",
"name": "Towns",
"features": [
{ "type": "Feature", "properties": { "geoname_id": "1090311", "name": "Ouangani", "ascii_name": "Ouangani", "alternate_names": [ "Ouangani" ], "latitude": "-12.84639", "longitude": "45.13611", "feature_class": "P", "feature_code": "PPLA", "country_code": "YT", "admin1_code": "97614", "population": 7272, "dem": 100, "timezone": "Indian/Mayotte", "modification_date": "2012-02-07", "country": "Mayotte" }, "geometry": { "type": "Point", "coordinates": [ 45.13611, -12.84639 ] } },
{ "type": "Feature", "properties": { "geoname_id": "1090356", "name": "Iloni", "ascii_name": "Iloni", "alternate_names": [ "Iloni", "iloni", "îloni" ], "latitude": "-12.84553", "longitude": "45.19037", "feature_class": "P", "feature_code": "PPL", "country_code": "YT", "admin1_code": "97607", "population": 2970, "dem": 24, "timezone": "Indian/Mayotte", "modification_date": "2024-01-29", "country": "Mayotte" }, "geometry": { "type": "Point", "coordinates": [ 45.19037, -12.84553 ] } },
{ "type": "Feature", "properties": { "geoname_id": "1090376", "name": "Poroani", "ascii_name": "Poroani", "alternate_names": [ "Poroani", "Proani" ], "latitude": "-12.89226", "longitude": "45.14121", "feature_class": "P", "feature_code": "PPL", "country_code": "YT", "admin1_code": "97606", "population": 2297, "dem": 18, "timezone": "Indian/Mayotte", "modification_date": "2024-01-29", "country": "Mayotte" }, "geometry": { "type": "Point", "coordinates": [ 45.14121, -12.89226 ] } },
{ "type": "Feature", "properties": { "geoname_id": "1090464", "name": "Mouanatrindri", "ascii_name": "Mouanatrindri", "alternate_names": [ "Mouanatrindi", "Mouanatrindri" ], "latitude": "-12.8996", "longitude": "45.09792", "feature_class": "P", "feature_code": "PPL", "country_code": "YT", "admin1_code": "97604", "population": 1054, "dem": 41, "timezone": "Indian/Mayotte", "modification_date": "2024-01-29", "country": "Mayotte" }, "geometry": { "type": "Point", "coordinates": [ 45.09792, -12.8996 ] } },
{ "type": "Feature", "properties": { "geoname_id": "921933", "name": "Combani", "ascii_name": "Combani", "latitude": "-12.8", "longitude": "45.16667", "feature_class": "P", "feature_code": "PPL", "country_code": "YT", "admin1_code": "97611", "population": 6665, "dem": 202, "timezone": "Indian/Mayotte", "modification_date": "2024-01-29", "country": "Mayotte" }, "geometry": { "type": "Point", "coordinates": [ 45.16667, -12.8 ] } },
{ "type": "Feature", "properties": { "geoname_id": "1090304", "name": "Tsararano", "ascii_name": "Tsararano", "alternate_names": [ "Tsararano" ], "latitude": "-12.83528", "longitude": "45.17355", "feature_class": "P", "feature_code": "PPL", "country_code": "YT", "admin1_code": "97607", "population": 4838, "dem": 72, "timezone": "Indian/Mayotte", "modification_date": "2024-01-29", "country": "Mayotte" }, "geometry": { "type": "Point", "coordinates": [ 45.17355, -12.83528 ] } },
{ "type": "Feature", "properties": { "geoname_id": "1090439", "name": "Mbouini", "ascii_name": "Mbouini", "alternate_names": [ "Mbouini" ], "latitude": "-12.98953", "longitude": "45.13735", "feature_class": "P", "feature_code": "PPL", "country_code": "YT", "admin1_code": "97609", "population": 524, "dem": 11, "timezone": "Indian/Mayotte", "modification_date": "2024-01-29", "country": "Mayotte" }, "geometry": { "type": "Point", "coordinates": [ 45.13735, -12.98953 ] } },
{ "type": "Feature", "properties": { "geoname_id": "921895", "name": "Dzumogne", "ascii_name": "Dzumogne", "alternate_names": [ "Dzoumogne", "Dzumogne" ], "latitude": "-12.71667", "longitude": "45.11667", "feature_class": "P", "feature_code": "PPL", "country_code": "YT", "admin1_code": "97602", "population": 6075, "dem": 48, "timezone": "Indian/Mayotte", "modification_date": "2024-01-29", "country": "Mayotte" }, "geometry": { "type": "Point", "coordinates": [ 45.11667, -12.71667 ] } },
{ "type": "Feature", "properties": { "geoname_id": "1090117", "name": "Mtsangamboua", "ascii_name": "Mtsangamboua", "alternate_names": [ "M'Tsangamboi", "Mtsangamboua" ], "latitude": "-12.69033", "longitude": "45.10926", "feature_class": "P", "feature_code": "PPL", "country_code": "YT", "admin1_code": "97602", "population": 1304, "dem": 34, "timezone": "Indian/Mayotte", "modification_date": "2024-01-29", "country": "Mayotte" }, "geometry": { "type": "Point", "coordinates": [ 45.10926, -12.69033 ] } },
{ "type": "Feature", "properties": { "geoname_id": "1090186", "name": "Miréréni", "ascii_name": "Mirereni", "alternate_names": [ "Mirereni", "Miréréni" ], "latitude": "-12.78867", "longitude": "45.14113", "feature_class": "P", "feature_code": "PPL", "country_code": "YT", "admin1_code": "97617", "population": 3364, "dem": 130, "timezone": "Indian/Mayotte", "modification_date": "2024-01-29", "country": "Mayotte" }, "geometry": { "type": "Point", "coordinates": [ 45.14113, -12.78867 ] } },
{ "type": "Feature", "properties": { "geoname_id": "1090221", "name": "Kangani", "ascii_name": "Kangani", "alternate_names": [ "Kangani" ], "latitude": "-12.73186", "longitude": "45.18694", "feature_class": "P", "feature_code": "PPL", "country_code": "YT", "admin1_code": "97610", "population": 1022, "dem": 20, "timezone": "Indian/Mayotte", "modification_date": "2024-01-29", "country": "Mayotte" }, "geometry": { "type": "Point", "coordinates": [ 45.18694, -12.73186 ] } },
{ "type": "Feature", "properties": { "geoname_id": "1090225", "name": "Koungou", "ascii_name": "Koungou", "alternate_names": [ "Kongo", "Koungou" ], "latitude": "-12.73361", "longitude": "45.20417", "feature_class": "P", "feature_code": "PPLA", "country_code": "YT", "admin1_code": "97610", "population": 18118, "dem": 40, "timezone": "Indian/Mayotte", "modification_date": "2012-02-07", "country": "Mayotte" }, "geometry": { "type": "Point", "coordinates": [ 45.20417, -12.73361 ] } },
{ "type": "Feature", "properties": { "geoname_id": "1090310", "name": "Barakani", "ascii_name": "Barakani", "alternate_names": [ "Barakani" ], "latitude": "-12.83799", "longitude": "45.1312", "feature_class": "P", "feature_code": "PPL", "country_code": "YT", "admin1_code": "97614", "population": 3153, "dem": 105, "timezone": "Indian/Mayotte", "modification_date": "2024-01-29", "country": "Mayotte" }, "geometry": { "type": "Point", "coordinates": [ 45.1312, -12.83799 ] } },
{ "type": "Feature", "properties": { "geoname_id": "1090161", "name": "M'Tsangamouji", "ascii_name": "M'Tsangamouji", "alternate_names": [ "Mtsamgamouji" ], "latitude": "-12.75944", "longitude": "45.08361", "feature_class": "P", "feature_code": "PPLA", "country_code": "YT", "admin1_code": "97613", "population": 5028, "dem": 57, "timezone": "Indian/Mayotte", "modification_date": "2013-08-08", "country": "Mayotte" }, "geometry": { "type": "Point", "coordinates": [ 45.08361, -12.75944 ] } },
{ "type": "Feature", "properties": { "geoname_id": "1090184", "name": "Mrowalé", "ascii_name": "Mrowale", "alternate_names": [ "Mrowale", "Mrowalé" ], "latitude": "-12.78867", "longitude": "45.12798", "feature_class": "P", "feature_code": "PPL", "country_code": "YT", "admin1_code": "97617", "population": 833, "dem": 121, "timezone": "Indian/Mayotte", "modification_date": "2024-01-29", "country": "Mayotte" }, "geometry": { "type": "Point", "coordinates": [ 45.12798, -12.78867 ] } },
{ "type": "Feature", "properties": { "geoname_id": "1090254", "name": "Vahibé", "ascii_name": "Vahibe", "alternate_names": [ "Vahibe", "Vahibeni", "Vahibé", "Vahibéni" ], "latitude": "-12.79024", "longitude": "45.17707", "feature_class": "P", "feature_code": "PPL", "country_code": "YT", "admin1_code": "97611", "population": 6067, "dem": 208, "timezone": "Indian/Mayotte", "modification_date": "2024-01-29", "country": "Mayotte" }, "geometry": { "type": "Point", "coordinates": [ 45.17707, -12.79024 ] } },
{ "type": "Feature", "properties": { "geoname_id": "921707", "name": "Pamandzi", "ascii_name": "Pamandzi", "alternate_names": [ "DZA", "Pamandzi" ], "latitude": "-12.79674", "longitude": "45.27938", "feature_class": "P", "feature_code": "PPLA", "country_code": "YT", "admin1_code": "97615", "population": 11442, "dem": 23, "timezone": "Indian/Mayotte", "modification_date": "2024-01-18", "country": "Mayotte" }, "geometry": { "type": "Point", "coordinates": [ 45.27938, -12.79674 ] } },
{ "type": "Feature", "properties": { "geoname_id": "1090108", "name": "Handréma", "ascii_name": "Handrema", "alternate_names": [ "Andrema", "Andréma", "Handrema", "Handréma" ], "latitude": "-12.68112", "longitude": "45.09965", "feature_class": "P", "feature_code": "PPL", "country_code": "YT", "admin1_code": "97602", "population": 1829, "dem": 11, "timezone": "Indian/Mayotte", "modification_date": "2024-01-29", "country": "Mayotte" }, "geometry": { "type": "Point", "coordinates": [ 45.09965, -12.68112 ] } },
{ "type": "Feature", "properties": { "geoname_id": "921900", "name": "Dzaoudzi", "ascii_name": "Dzaoudzi", "alternate_names": [ "DZA", "Dzaoudzi", "Dzaoudzi-Labattoir", "Zaudzi", "zao de ji", "zauji", "ザウジ", "藻德济" ], "latitude": "-12.78339", "longitude": "45.25693", "feature_class": "P", "feature_code": "PPLA", "country_code": "YT", "admin1_code": "97608", "population": 15339, "dem": 26, "timezone": "Indian/Mayotte", "modification_date": "2014-08-19", "country": "Mayotte" }, "geometry": { "type": "Point", "coordinates": [ 45.25693, -12.78339 ] } },
{ "type": "Feature", "properties": { "geoname_id": "1090123", "name": "Hamjago", "ascii_name": "Hamjago", "alternate_names": [ "Hamjago" ], "latitude": "-12.68832", "longitude": "45.0745", "feature_class": "P", "feature_code": "PPL", "country_code": "YT", "admin1_code": "97612", "population": 1899, "dem": 13, "timezone": "Indian/Mayotte", "modification_date": "2024-01-29", "country": "Mayotte" }, "geometry": { "type": "Point", "coordinates": [ 45.0745, -12.68832 ] } },
{ "type": "Feature", "properties": { "geoname_id": "1090239", "name": "Kaouéni", "ascii_name": "Kaoueni", "latitude": "-12.77121", "longitude": "45.22419", "feature_class": "P", "feature_code": "PPL", "country_code": "YT", "admin1_code": "97611", "population": 17060, "dem": 9, "timezone": "Indian/Mayotte", "modification_date": "2024-01-29", "country": "Mayotte" }, "geometry": { "type": "Point", "coordinates": [ 45.22419, -12.77121 ] } },
{ "type": "Feature", "properties": { "geoname_id": "1090119", "name": "Bandraboua", "ascii_name": "Bandraboua", "alternate_names": [ "Bandraboua", "M'Gombani" ], "latitude": "-12.7044", "longitude": "45.12231", "feature_class": "P", "feature_code": "PPLA", "country_code": "YT", "admin1_code": "97602", "population": 7880, "dem": 17, "timezone": "Indian/Mayotte", "modification_date": "2018-12-04", "country": "Mayotte" }, "geometry": { "type": "Point", "coordinates": [ 45.12231, -12.7044 ] } },
{ "type": "Feature", "properties": { "geoname_id": "1090253", "name": "Tsoundzou 2", "ascii_name": "Tsoundzou 2", "alternate_names": [ "Tsoundzou Deux" ], "latitude": "-12.81845", "longitude": "45.1972", "feature_class": "P", "feature_code": "PPL", "country_code": "YT", "admin1_code": "97611", "population": 2559, "dem": 36, "timezone": "Indian/Mayotte", "modification_date": "2024-01-29", "country": "Mayotte" }, "geometry": { "type": "Point", "coordinates": [ 45.1972, -12.81845 ] } },
{ "type": "Feature", "properties": { "geoname_id": "1090387", "name": "Hamouro", "ascii_name": "Hamouro", "alternate_names": [ "Amoro", "Hamouro" ], "latitude": "-12.8813", "longitude": "45.21494", "feature_class": "P", "feature_code": "PPL", "country_code": "YT", "admin1_code": "97603", "population": 1050, "dem": 20, "timezone": "Indian/Mayotte", "modification_date": "2024-01-18", "country": "Mayotte" }, "geometry": { "type": "Point", "coordinates": [ 45.21494, -12.8813 ] } },
{ "type": "Feature", "properties": { "geoname_id": "1090434", "name": "Dapani", "ascii_name": "Dapani", "alternate_names": [ "Dapani", "dapani", "Дапани", "ダパニ" ], "latitude": "-12.97129", "longitude": "45.16084", "feature_class": "P", "feature_code": "PPL", "country_code": "YT", "admin1_code": "97603", "population": 824, "dem": 13, "timezone": "Indian/Mayotte", "modification_date": "2024-01-29", "country": "Mayotte" }, "geometry": { "type": "Point", "coordinates": [ 45.16084, -12.97129 ] } },
{ "type": "Feature", "properties": { "geoname_id": "1090155", "name": "Chembényoumba", "ascii_name": "Chembenyoumba", "alternate_names": [ "Chembenioumba", "Chembenyoumba", "Chembénioumba", "Chembényoumba" ], "latitude": "-12.76472", "longitude": "45.07793", "feature_class": "P", "feature_code": "PPL", "country_code": "YT", "admin1_code": "97613", "population": 1474, "dem": 43, "timezone": "Indian/Mayotte", "modification_date": "2024-01-29", "country": "Mayotte" }, "geometry": { "type": "Point", "coordinates": [ 45.07793, -12.76472 ] } },
{ "type": "Feature", "properties": { "geoname_id": "1090248", "name": "Tsoundzou 1", "ascii_name": "Tsoundzou 1", "alternate_names": [ "Trotrondjeou", "Trotrondjéou", "Tsoundzou 1" ], "latitude": "-12.80615", "longitude": "45.2023", "feature_class": "P", "feature_code": "PPL", "country_code": "YT", "admin1_code": "97611", "population": 5570, "dem": 50, "timezone": "Indian/Mayotte", "modification_date": "2024-01-29", "country": "Mayotte" }, "geometry": { "type": "Point", "coordinates": [ 45.2023, -12.80615 ] } },
{ "type": "Feature", "properties": { "geoname_id": "1090361", "name": "Hajangoua", "ascii_name": "Hajangoua", "alternate_names": [ "Ajangua", "Hajangoua" ], "latitude": "-12.86607", "longitude": "45.19857", "feature_class": "P", "feature_code": "PPL", "country_code": "YT", "admin1_code": "97607", "population": 2130, "dem": 18, "timezone": "Indian/Mayotte", "modification_date": "2024-01-29", "country": "Mayotte" }, "geometry": { "type": "Point", "coordinates": [ 45.19857, -12.86607 ] } },
{ "type": "Feature", "properties": { "geoname_id": "1090402", "name": "Nyambadao", "ascii_name": "Nyambadao", "alternate_names": [ "Nyambadao" ], "latitude": "-12.89346", "longitude": "45.20214", "feature_class": "P", "feature_code": "PPL", "country_code": "YT", "admin1_code": "97603", "population": 1692, "dem": 23, "timezone": "Indian/Mayotte", "modification_date": "2024-01-29", "country": "Mayotte" }, "geometry": { "type": "Point", "coordinates": [ 45.20214, -12.89346 ] } },
{ "type": "Feature", "properties": { "geoname_id": "1090425", "name": "Mtsamoudou", "ascii_name": "Mtsamoudou", "alternate_names": [ "M'Samoudou", "Moutsamoudou", "Mtsamoudou" ], "latitude": "-12.96232", "longitude": "45.17449", "feature_class": "P", "feature_code": "PPL", "country_code": "YT", "admin1_code": "97603", "population": 1923, "dem": 46, "timezone": "Indian/Mayotte", "modification_date": "2024-01-29", "country": "Mayotte" }, "geometry": { "type": "Point", "coordinates": [ 45.17449, -12.96232 ] } },
{ "type": "Feature", "properties": { "geoname_id": "1090443", "name": "Mronabéja", "ascii_name": "Mronabeja", "alternate_names": [ "Mouroni Abeja", "Mronabeja", "Mronabéja" ], "latitude": "-12.9795", "longitude": "45.12386", "feature_class": "P", "feature_code": "PPL", "country_code": "YT", "admin1_code": "97609", "population": 550, "dem": 13, "timezone": "Indian/Mayotte", "modification_date": "2024-01-29", "country": "Mayotte" }, "geometry": { "type": "Point", "coordinates": [ 45.12386, -12.9795 ] } },
{ "type": "Feature", "properties": { "geoname_id": "1090383", "name": "Miréréni", "ascii_name": "Mirereni", "alternate_names": [ "Mirereni", "Miréréni", "Mrereni", "Mréréni" ], "latitude": "-12.90708", "longitude": "45.15295", "feature_class": "P", "feature_code": "PPL", "country_code": "YT", "admin1_code": "97606", "population": 1372, "dem": 22, "timezone": "Indian/Mayotte", "modification_date": "2024-01-29", "country": "Mayotte" }, "geometry": { "type": "Point", "coordinates": [ 45.15295, -12.90708 ] } },
{ "type": "Feature", "properties": { "geoname_id": "1090410", "name": "Malamani", "ascii_name": "Malamani", "alternate_names": [ "Malamani" ], "latitude": "-12.92049", "longitude": "45.15836", "feature_class": "P", "feature_code": "PPL", "country_code": "YT", "admin1_code": "97606", "population": 779, "dem": 18, "timezone": "Indian/Mayotte", "modification_date": "2024-01-29", "country": "Mayotte" }, "geometry": { "type": "Point", "coordinates": [ 45.15836, -12.92049 ] } },
{ "type": "Feature", "properties": { "geoname_id": "1090449", "name": "Choungui", "ascii_name": "Choungui", "alternate_names": [ "Choungui", "Shongui", "Шонгуи" ], "latitude": "-12.96231", "longitude": "45.12665", "feature_class": "P", "feature_code": "PPL", "country_code": "YT", "admin1_code": "97609", "population": 753, "dem": 289, "timezone": "Indian/Mayotte", "modification_date": "2024-01-29", "country": "Mayotte" }, "geometry": { "type": "Point", "coordinates": [ 45.12665, -12.96231 ] } },
{ "type": "Feature", "properties": { "geoname_id": "1090476", "name": "Kani Kéli", "ascii_name": "Kani Keli", "alternate_names": [ "Kani Keli", "Kani Kéli" ], "latitude": "-12.95361", "longitude": "45.10333", "feature_class": "P", "feature_code": "PPLA", "country_code": "YT", "admin1_code": "97609", "population": 4854, "dem": 95, "timezone": "Indian/Mayotte", "modification_date": "2018-12-04", "country": "Mayotte" }, "geometry": { "type": "Point", "coordinates": [ 45.10333, -12.95361 ] } },
{ "type": "Feature", "properties": { "geoname_id": "921917", "name": "Dembeni", "ascii_name": "Dembeni", "alternate_names": [ "Debenay", "Debeney" ], "latitude": "-12.8436", "longitude": "45.18436", "feature_class": "P", "feature_code": "PPLA", "country_code": "YT", "admin1_code": "97607", "population": 10141, "dem": 15, "timezone": "Indian/Mayotte", "modification_date": "2013-08-08", "country": "Mayotte" }, "geometry": { "type": "Point", "coordinates": [ 45.18436, -12.8436 ] } },
{ "type": "Feature", "properties": { "geoname_id": "1090126", "name": "Mtsamboro", "ascii_name": "Mtsamboro", "alternate_names": [ "M'Zamboro", "Mtsamboro", "M’Zamboro" ], "latitude": "-12.69982", "longitude": "45.06894", "feature_class": "P", "feature_code": "PPLA", "country_code": "YT", "admin1_code": "97612", "population": 7724, "dem": 26, "timezone": "Indian/Mayotte", "modification_date": "2019-02-28", "country": "Mayotte" }, "geometry": { "type": "Point", "coordinates": [ 45.06894, -12.69982 ] } },
{ "type": "Feature", "properties": { "geoname_id": "1090223", "name": "Trévani", "ascii_name": "Trevani", "alternate_names": [ "Trevani", "Trévani" ], "latitude": "-12.73437", "longitude": "45.19861", "feature_class": "P", "feature_code": "PPL", "country_code": "YT", "admin1_code": "97610", "population": 4022, "dem": 18, "timezone": "Indian/Mayotte", "modification_date": "2024-01-29", "country": "Mayotte" }, "geometry": { "type": "Point", "coordinates": [ 45.19861, -12.73437 ] } },
{ "type": "Feature", "properties": { "geoname_id": "1090412", "name": "Mramadoudou", "ascii_name": "Mramadoudou", "alternate_names": [ "Mouramedoudou", "Mramadoudou" ], "latitude": "-12.92846", "longitude": "45.15324", "feature_class": "P", "feature_code": "PPL", "country_code": "YT", "admin1_code": "97606", "population": 1423, "dem": 13, "timezone": "Indian/Mayotte", "modification_date": "2024-01-29", "country": "Mayotte" }, "geometry": { "type": "Point", "coordinates": [ 45.15324, -12.92846 ] } },
{ "type": "Feature", "properties": { "geoname_id": "1090415", "name": "Chirongui", "ascii_name": "Chirongui", "alternate_names": [ "Chirongui" ], "latitude": "-12.93194", "longitude": "45.14833", "feature_class": "P", "feature_code": "PPLA", "country_code": "YT", "admin1_code": "97606", "population": 6173, "dem": 13, "timezone": "Indian/Mayotte", "modification_date": "2012-02-07", "country": "Mayotte" }, "geometry": { "type": "Point", "coordinates": [ 45.14833, -12.93194 ] } },
{ "type": "Feature", "properties": { "geoname_id": "1090229", "name": "Majikavo Lamir", "ascii_name": "Majikavo Lamir", "alternate_names": [ "Majikavo 1", "Majikavo Lamir" ], "latitude": "-12.75572", "longitude": "45.22968", "feature_class": "P", "feature_code": "PPL", "country_code": "YT", "admin1_code": "97611", "population": 2081, "dem": 29, "timezone": "Indian/Mayotte", "modification_date": "2024-01-29", "country": "Mayotte" }, "geometry": { "type": "Point", "coordinates": [ 45.22968, -12.75572 ] } },
{ "type": "Feature", "properties": { "geoname_id": "1090461", "name": "Mzouazia", "ascii_name": "Mzouazia", "alternate_names": [ "Mzouazia" ], "latitude": "-12.92717", "longitude": "45.10336", "feature_class": "P", "feature_code": "PPL", "country_code": "YT", "admin1_code": "97604", "population": 1159, "dem": 12, "timezone": "Indian/Mayotte", "modification_date": "2024-01-29", "country": "Mayotte" }, "geometry": { "type": "Point", "coordinates": [ 45.10336, -12.92717 ] } },
{ "type": "Feature", "properties": { "geoname_id": "1090467", "name": "Bouéni", "ascii_name": "Boueni", "alternate_names": [ "Boueni", "Bouéni" ], "latitude": "-12.9025", "longitude": "45.07611", "feature_class": "P", "feature_code": "PPLA", "country_code": "YT", "admin1_code": "97604", "population": 5334, "dem": 40, "timezone": "Indian/Mayotte", "modification_date": "2018-12-04", "country": "Mayotte" }, "geometry": { "type": "Point", "coordinates": [ 45.07611, -12.9025 ] } },
{ "type": "Feature", "properties": { "geoname_id": "1090214", "name": "Longoni", "ascii_name": "Longoni", "alternate_names": [ "Longoni" ], "latitude": "-12.73426", "longitude": "45.16298", "feature_class": "P", "feature_code": "PPL", "country_code": "YT", "admin1_code": "97610", "population": 3983, "dem": 25, "timezone": "Indian/Mayotte", "modification_date": "2024-01-18", "country": "Mayotte" }, "geometry": { "type": "Point", "coordinates": [ 45.16298, -12.73426 ] } },
{ "type": "Feature", "properties": { "geoname_id": "1090242", "name": "Mtsapéré", "ascii_name": "Mtsapere", "alternate_names": [ "Mtsapere", "Mtsapéré" ], "latitude": "-12.78636", "longitude": "45.21732", "feature_class": "P", "feature_code": "PPLX", "country_code": "YT", "admin1_code": "97611", "population": 15880, "dem": 37, "timezone": "Indian/Mayotte", "modification_date": "2024-01-29", "country": "Mayotte" }, "geometry": { "type": "Point", "coordinates": [ 45.21732, -12.78636 ] } },
{ "type": "Feature", "properties": { "geoname_id": "1090266", "name": "Sohoa", "ascii_name": "Sohoa", "alternate_names": [ "Sohoa" ], "latitude": "-12.82233", "longitude": "45.10552", "feature_class": "P", "feature_code": "PPL", "country_code": "YT", "admin1_code": "97605", "population": 1545, "dem": 37, "timezone": "Indian/Mayotte", "modification_date": "2024-01-29", "country": "Mayotte" }, "geometry": { "type": "Point", "coordinates": [ 45.10552, -12.82233 ] } },
{ "type": "Feature", "properties": { "geoname_id": "1090321", "name": "Mangajou", "ascii_name": "Mangajou", "alternate_names": [ "Mangajou" ], "latitude": "-12.84404", "longitude": "45.11716", "feature_class": "P", "feature_code": "PPL", "country_code": "YT", "admin1_code": "97616", "population": 1588, "dem": 27, "timezone": "Indian/Mayotte", "modification_date": "2024-01-29", "country": "Mayotte" }, "geometry": { "type": "Point", "coordinates": [ 45.11716, -12.84404 ] } },
{ "type": "Feature", "properties": { "geoname_id": "1090340", "name": "Sada", "ascii_name": "Sada", "alternate_names": [ "Sada" ], "latitude": "-12.85055", "longitude": "45.10205", "feature_class": "P", "feature_code": "PPLA", "country_code": "YT", "admin1_code": "97616", "population": 9832, "dem": 82, "timezone": "Indian/Mayotte", "modification_date": "2018-12-04", "country": "Mayotte" }, "geometry": { "type": "Point", "coordinates": [ 45.10205, -12.85055 ] } },
{ "type": "Feature", "properties": { "geoname_id": "1090455", "name": "Tsimkoura", "ascii_name": "Tsimkoura", "alternate_names": [ "Tsimkoura" ], "latitude": "-12.93934", "longitude": "45.13739", "feature_class": "P", "feature_code": "PPL", "country_code": "YT", "admin1_code": "97606", "population": 1406, "dem": 14, "timezone": "Indian/Mayotte", "modification_date": "2024-01-29", "country": "Mayotte" }, "geometry": { "type": "Point", "coordinates": [ 45.13739, -12.93934 ] } },
{ "type": "Feature", "properties": { "geoname_id": "921704", "name": "Passamainty", "ascii_name": "Passamainty", "alternate_names": [ "Passamainti", "Passamainty", "Passamaïnti" ], "latitude": "-12.80201", "longitude": "45.20818", "feature_class": "P", "feature_code": "PPL", "country_code": "YT", "admin1_code": "97611", "population": 8430, "dem": 11, "timezone": "Indian/Mayotte", "modification_date": "2024-01-29", "country": "Mayotte" }, "geometry": { "type": "Point", "coordinates": [ 45.20818, -12.80201 ] } },
{ "type": "Feature", "properties": { "geoname_id": "1090275", "name": "Labattoir", "ascii_name": "Labattoir", "alternate_names": [ "Labattoir" ], "latitude": "-12.77698", "longitude": "45.28234", "feature_class": "P", "feature_code": "PPL", "country_code": "YT", "admin1_code": "97608", "population": 17739, "dem": 34, "timezone": "Indian/Mayotte", "modification_date": "2024-01-18", "country": "Mayotte" }, "geometry": { "type": "Point", "coordinates": [ 45.28234, -12.77698 ] } },
{ "type": "Feature", "properties": { "geoname_id": "921815", "name": "Mamoudzou", "ascii_name": "Mamoudzou", "alternate_names": [ "Mambutzou", "Mamoudzou", "Mamoutzou", "Mamudzu", "Mamutzu", "mamuju", "Мамудзу", "마무주" ], "latitude": "-12.78234", "longitude": "45.22878", "feature_class": "P", "feature_code": "PPLC", "country_code": "YT", "admin1_code": "97611", "population": 54831, "dem": 23, "timezone": "Indian/Mayotte", "modification_date": "2023-02-01", "country": "Mayotte" }, "geometry": { "type": "Point", "coordinates": [ 45.22878, -12.78234 ] } },
{ "type": "Feature", "properties": { "geoname_id": "1090134", "name": "Mtsangadoua", "ascii_name": "Mtsangadoua", "alternate_names": [ "M'Tsangadoi", "Mtsangadoua" ], "latitude": "-12.71112", "longitude": "45.05118", "feature_class": "P", "feature_code": "PPL", "country_code": "YT", "admin1_code": "97601", "population": 1534, "dem": 25, "timezone": "Indian/Mayotte", "modification_date": "2024-01-29", "country": "Mayotte" }, "geometry": { "type": "Point", "coordinates": [ 45.05118, -12.71112 ] } },
{ "type": "Feature", "properties": { "geoname_id": "1090308", "name": "Ongojou", "ascii_name": "Ongojou", "alternate_names": [ "Angouzou", "Ongojou", "Ongoujou" ], "latitude": "-12.83883", "longitude": "45.16012", "feature_class": "P", "feature_code": "PPL", "country_code": "YT", "admin1_code": "97607", "population": 2111, "dem": 174, "timezone": "Indian/Mayotte", "modification_date": "2024-01-29", "country": "Mayotte" }, "geometry": { "type": "Point", "coordinates": [ 45.16012, -12.83883 ] } },
{ "type": "Feature", "properties": { "geoname_id": "1090103", "name": "Mtsahara", "ascii_name": "Mtsahara", "alternate_names": [ "Mtsahara" ], "latitude": "-12.68137", "longitude": "45.08274", "feature_class": "P", "feature_code": "PPL", "country_code": "YT", "admin1_code": "97612", "population": 2538, "dem": 19, "timezone": "Indian/Mayotte", "modification_date": "2024-01-29", "country": "Mayotte" }, "geometry": { "type": "Point", "coordinates": [ 45.08274, -12.68137 ] } },
{ "type": "Feature", "properties": { "geoname_id": "1090177", "name": "Tsingoni", "ascii_name": "Tsingoni", "alternate_names": [ "Tsingoni" ], "latitude": "-12.78722", "longitude": "45.10278", "feature_class": "P", "feature_code": "PPLA", "country_code": "YT", "admin1_code": "97617", "population": 7602, "dem": 56, "timezone": "Indian/Mayotte", "modification_date": "2018-12-04", "country": "Mayotte" }, "geometry": { "type": "Point", "coordinates": [ 45.10278, -12.78722 ] } },
{ "type": "Feature", "properties": { "geoname_id": "1090191", "name": "Bouyouni", "ascii_name": "Bouyouni", "alternate_names": [ "Bouilloni", "Bouyouni" ], "latitude": "-12.73462", "longitude": "45.13914", "feature_class": "P", "feature_code": "PPL", "country_code": "YT", "admin1_code": "97602", "population": 1948, "dem": 11, "timezone": "Indian/Mayotte", "modification_date": "2024-01-29", "country": "Mayotte" }, "geometry": { "type": "Point", "coordinates": [ 45.13914, -12.73462 ] } },
{ "type": "Feature", "properties": { "geoname_id": "1090322", "name": "Chiconi", "ascii_name": "Chiconi", "alternate_names": [ "Chiconi" ], "latitude": "-12.83333", "longitude": "45.11056", "feature_class": "P", "feature_code": "PPLA", "country_code": "YT", "admin1_code": "97605", "population": 7204, "dem": 109, "timezone": "Indian/Mayotte", "modification_date": "2020-10-25", "country": "Mayotte" }, "geometry": { "type": "Point", "coordinates": [ 45.11056, -12.83333 ] } },
{ "type": "Feature", "properties": { "geoname_id": "1090397", "name": "Bandrélé", "ascii_name": "Bandrele", "alternate_names": [ "Bandrele", "Bandrélé" ], "latitude": "-12.91276", "longitude": "45.19256", "feature_class": "P", "feature_code": "PPLA", "country_code": "YT", "admin1_code": "97603", "population": 6350, "dem": 14, "timezone": "Indian/Mayotte", "modification_date": "2018-12-04", "country": "Mayotte" }, "geometry": { "type": "Point", "coordinates": [ 45.19256, -12.91276 ] } },
{ "type": "Feature", "properties": { "geoname_id": "1090407", "name": "Bambo Est", "ascii_name": "Bambo Est", "alternate_names": [ "Bambo Est" ], "latitude": "-12.92888", "longitude": "45.17673", "feature_class": "P", "feature_code": "PPL", "country_code": "YT", "admin1_code": "97603", "population": 613, "dem": 10, "timezone": "Indian/Mayotte", "modification_date": "2024-01-29", "country": "Mayotte" }, "geometry": { "type": "Point", "coordinates": [ 45.17673, -12.92888 ] } },
{ "type": "Feature", "properties": { "geoname_id": "922015", "name": "Acoua", "ascii_name": "Acoua", "alternate_names": [ "Accua", "Acoua", "Acua" ], "latitude": "-12.72391", "longitude": "45.05819", "feature_class": "P", "feature_code": "PPLA", "country_code": "YT", "admin1_code": "97601", "population": 4622, "dem": 10, "timezone": "Indian/Mayotte", "modification_date": "2017-01-11", "country": "Mayotte" }, "geometry": { "type": "Point", "coordinates": [ 45.05819, -12.72391 ] } },
{ "type": "Feature", "properties": { "geoname_id": "1090463", "name": "Hanyoundrou", "ascii_name": "Hanyoundrou", "alternate_names": [ "Hanyoundrou" ], "latitude": "-12.90331", "longitude": "45.10093", "feature_class": "P", "feature_code": "PPL", "country_code": "YT", "admin1_code": "97604", "population": 847, "dem": 18, "timezone": "Indian/Mayotte", "modification_date": "2024-01-29", "country": "Mayotte" }, "geometry": { "type": "Point", "coordinates": [ 45.10093, -12.90331 ] } },
{ "type": "Feature", "properties": { "geoname_id": "1090481", "name": "Kani Bé", "ascii_name": "Kani Be", "latitude": "-12.96435", "longitude": "45.11162", "feature_class": "P", "feature_code": "PPL", "country_code": "YT", "admin1_code": "97609", "population": 948, "dem": 16, "timezone": "Indian/Mayotte", "modification_date": "2024-01-29", "country": "Mayotte" }, "geometry": { "type": "Point", "coordinates": [ 45.11162, -12.96435 ] } },
{ "type": "Feature", "properties": { "geoname_id": "1090227", "name": "Majikavo Koropa", "ascii_name": "Majikavo Koropa", "alternate_names": [ "Majikavo 2", "Majikavo Koropa" ], "latitude": "-12.74701", "longitude": "45.22058", "feature_class": "P", "feature_code": "PPL", "country_code": "YT", "admin1_code": "97610", "population": 11698, "dem": 45, "timezone": "Indian/Mayotte", "modification_date": "2024-01-29", "country": "Mayotte" }, "geometry": { "type": "Point", "coordinates": [ 45.22058, -12.74701 ] } },
{ "type": "Feature", "properties": { "geoname_id": "1090240", "name": "Kavani", "ascii_name": "Kavani", "alternate_names": [ "Kavani" ], "latitude": "-12.78447", "longitude": "45.22299", "feature_class": "P", "feature_code": "PPLX", "country_code": "YT", "admin1_code": "97611", "population": 9740, "dem": 22, "timezone": "Indian/Mayotte", "modification_date": "2024-01-29", "country": "Mayotte" }, "geometry": { "type": "Point", "coordinates": [ 45.22299, -12.78447 ] } },
{ "type": "Feature", "properties": { "geoname_id": "1090314", "name": "Kahani", "ascii_name": "Kahani", "latitude": "-12.82385", "longitude": "45.13141", "feature_class": "P", "feature_code": "PPL", "country_code": "YT", "admin1_code": "97614", "population": 3073, "dem": 121, "timezone": "Indian/Mayotte", "modification_date": "2024-01-29", "country": "Mayotte" }, "geometry": { "type": "Point", "coordinates": [ 45.13141, -12.82385 ] } }
]
}
